"name","lon","lat"
"Staatliche Hochschule für Gestaltung",8.38367346748866,49.0020371847458
"Sportzentrum PH-Weingarten",9.65431936748053,47.8146786971547
"Hauptgebäude der Hochschule",9.65320178622935,47.8143648846582
"B-Gebäude",9.65520257333418,47.8126759466626
"A-Gebäude",9.6547233859873,47.8128894356088
"D-Gebäude",9.65670478262918,47.8130489649437
"C-Gebäude",9.65587120740213,47.8124328700277
"W-Gebäude",9.65525722994729,47.8137814754315
"T-Gebäude",9.65159369591833,47.812826594843
"L-Gebäude",9.65127399681442,47.8131077597854
"K-Gebäude",9.65071784414395,47.8127550334691
"Naturwissenschaftliches Zentrum",9.64618051553463,47.8082233337086
"Pädagogische Hochschule",9.64469361846702,47.8097474101261
"Alte Burse / Institut für Philosophie und Kunstgeschichte",9.05490106676307,48.5194547706277
"Staatliche Akademie der bildenden Künste",9.17464168558129,48.8004227296014
"VWA-Hochschule",9.18375889724719,48.7923023180435
"Universität Konstanz",9.18827142102768,47.6900780196995
"Universität Heidelberg",8.66765847670818,49.4187003666927
"Campus Hohbuch",9.18704192819131,48.4817542854567
"V-Gebäude",9.64882835886908,47.8109924580846
"M-Gebäude",9.64972754054165,47.8105820064215
"P-Gebäude",9.64930686873291,47.8108171734951
"Hochschule für Musik und Darstellende Kunst",9.18633172660172,48.7783585830039
"Merz Akademie",9.21000825584528,48.7892968655134
"Hochschule Biberach",9.78754192944474,48.0938886075259
"Cafete",8.6953118,49.41430855
"Neuer Hörsaal, Bunker",8.69551375821195,49.414353708632
"Werkstattgebäude / Bibliothek Islamwissenschaft",8.69460097687333,49.414662946523
"CIP Pool, Werkstattgebäude",8.69509374473442,49.4147013604204
"Institut für Ethnologie / Islamwissenschaft / Beauftragte für Chancengleichheit / Studierendenrat",8.69473532933797,49.4144389175495
"Institut für Theoretische Physik / Institut für Theoretische Astrophysik",8.69549669097114,49.4148474395002
"HfWU Campus HauberKollegiengebäude K V",9.33868724593061,48.6297379368949
"G-Gebäude",9.65399874615293,47.81210357962
"E-Gebäude",9.6550748,47.8117289
"Institut für Bienenkunde",9.21102689720706,48.7093596246341
"Romanisches Seminar",8.70801315202369,49.4101560209241
"DHBW Mosbach - Campus Bad Mergentheim",9.77543939125339,49.4919296436821
"Stadt Mannheim",8.50409453946679,49.4815563722445
"Historischer Studentenkarzer",8.70640129086389,49.4113122975902
"Studentenmuseum",8.70660083331327,49.4113552631482
"Alte Universität, Rektorat",8.70635434126451,49.4112839710827
"Kunsthistorisches Institut",8.70844049661232,49.4098733314151
"Psychologisches Institut, Wohngebäude",8.6975331,49.41109425
"Institut für Übersetzen und Dolmetschen (IÜD)",8.69867874481745,49.4096930296564
"Theologisches Seminar",8.71446960928403,49.4127155458925
"Zentrum für Studienberatung",8.70384958139999,49.4086229512389
"Zeppelin Universität",9.43375502542362,47.6586667575925
"Int. Wissenschaftsforum",8.71635144021028,49.4133433841802
"Int. u. Interdisziplinäre Theologie, Wissenschaftliches Theologisches Seminar",8.71603668504094,49.4132389002119
"Heidelberg Collaboratory for Image Processing",8.67582023858055,49.3996408760409
"Musikhochschule",7.87239201464615,47.989089477198
"Adolf-Würth-Gebäude",8.41246935730765,49.0103224527798
NA,8.68774030202133,49.417743450049
"Macromedia GmbH",9.21193988713628,48.8138658845156
"Oberer Lindenhof",9.30420974536594,48.4739746990182
NA,8.68813071921718,49.4176949902543
"Zep1",8.6858608,49.42109945
"Hochschule für Kommunikation und Gestaltung",9.98726629332274,48.3929261575298
NA,8.20856162138789,48.0516700179962
"Popakademie Baden-Württemberg",8.45714535717689,49.4964081665713
"Duale Hochschule Heidenheim",10.1545582497695,48.6820083894443
"D",8.4584386,49.48817375
"A",8.45769604357909,49.4878773371114
"C",8.45836237561554,49.4874843730841
"Rhenania-Haus",8.45806749049387,49.487731973284
"A3",8.46126465581398,49.4854794266024
"Ökumenisches Institut, Wohnheim",8.7147798749954,49.4127689326398
"Hochschule für Gestaltung - Haus Goethe",9.79187601452022,48.7952268573858
"Hochschule für Gestaltung - Haus des Wissens",9.79346120810752,48.7935736138358
"Staatliches Hochbauamt Freiburg",7.86663543607263,47.9918675939715
"DHBW Lörrach",7.67744281808761,47.6172285051603
"Evangelische Hochschule Ludwigsburg - Campus Reutlingen",9.18936942651148,48.4836937244095
"DHBW Lörrach - Campus Marie-Curie-Straße",7.6583096,47.60889885
"Akademie im Universitätsklinikum",7.8344966750964,48.002717157016
"Hochschule Biberach Haus F",9.78613066917291,48.0935587870294
"Hochschule Heilbronn",9.20997854894554,49.1226596668267
"Kunstakademie",8.38998372596237,49.0118667859391
"Hochschule für Wirtschaft und Umwelt Nürtingen-Geislingen",9.35190158449747,48.6089322074488
"Staatliche Hochschule für Musik und Darstellende Kunst",8.47084191717388,49.4838724690946
"Hochschule für Polizei Villingen-Schwenningen",8.51535092286331,48.0653070809656
"Pädagogische Hochschule Freiburg",7.89252903413368,47.9817517622265
"Hochschule Kehl",7.81714969250116,48.5747184542312
NA,9.20426588450643,49.1250712074488
"Gustav-Siewerth-Akademie",8.19842125529442,47.6784250649575
"DHBW Ravensburg Campus Friedrichshafen",9.44769407943191,47.6650790281268
"SRH Wieblingen Campus",8.6533177649888,49.4129862094367
"Zentrum für Europäische Wirtschaftsforschung",8.46603820269112,49.4819690412905
"Verfügungsgebäude Rechtswissenschaften und Volkwirtschaftslehre",8.46630670823685,49.4825873270059
"Otto-Mann-Institut",8.46786042307299,49.4822278638886
"Gästehaus der Universität",8.46521788253464,49.4847941512789
"Universität Hohenheim",9.21147017690708,48.7132600139792
"Dekanat der Fakultät für Betriebswirtschaftslehre",8.46577267209648,49.4826552076211
"Fakultät für BWL, Allgemeine BWL",8.46568478158641,49.4825655496083
NA,8.46557715490334,49.4824518732947
"Studienbüro 1-3",8.46721117316641,49.4824518282512
"Historisches Institut",8.46675008667269,49.4825188157421
"Institut für Marktorientierte Unternehmensführung",8.46527982086331,49.482157353248
"Institut für Theoretische Astrophysik",8.6945007559996,49.4141592932894
"Institut für Theoretische Physik",8.69673500050427,49.4148493421111
"Institut für Theoretische Physik",8.698443383671,49.4150375579049
"Studentenwerk Mannheim",8.46656705503625,49.4822630576114
"Studierendenhaus",8.4675912065466,49.4823534864641
"Fakultät für BWL, Finanzierung, Bankenbetriebslehre",8.46543926917504,49.4822892220782
"Otto-Selz-Institut für Angewandte Psychologie",8.46905474962275,49.4809142754349
"Mannheim Business School",8.46589192228471,49.4828115335101
"Hochschule Mannheim L",8.48185343376698,49.4712471475971
NA,8.47986805756896,49.4720904021069
NA,8.48215184648335,49.4695329306686
NA,8.39455626583369,49.0149503147945
"Pädagogische Hochschule Karlsruhe",8.39270942066731,49.013688685112
"Karlshochschule International University",8.39405374312142,49.0066414892739
"Staatliche Akademie der Bildenden Künste Karlsruhe",8.38688901815703,49.0142478339272
"Sporthalle der Universität",8.4992394,49.4785265
"Hochschule Aalen (Campus Burren)",10.0674203809096,48.8411528941084
"Hochschule Aalen (Campus Beethovenstraße)",10.0734875504033,48.8378169034705
"Diakoniewissenschaftliches Institut",8.71428134330869,49.4122681532146
"Gästehaus L2 & IBZ",8.46442806988342,49.4843468253999
NA,8.45583338342027,49.488586942438
"Neue Universität",8.70661101179187,49.4101948191113
"Geographisches Institut",8.67689567890238,49.4187077465114
"Hochschule für Gestaltung",9.79359217344216,48.7930239763053
"Filmakademie Baden-Württemberg",9.19191406574223,48.8936481193236
"Akademie für Darstellende Kunst Baden-Württemberg",9.19344377463323,48.893838661101
"Hochschule Pforzheim",8.71668847434042,48.8788206484044
"DHBW",9.44499851923839,47.6649241944016
"EBC Hochschule Stuttgart",9.18031810971831,48.7698767442142
NA,9.19610721597829,48.8836050448481
"Technische Hochschule Ulm",9.99747654569038,48.4087599559655
"A5",8.45731347707119,49.4873325181387
"Hochschule für Forstwirtschaft Rottenburg",8.94300246021884,48.4577308425035
"Hochschule Esslingen",9.3114966243009,48.7382716514597
"Hochschule Esslingen, Standort Göppingen",9.65619869697099,48.6971003161868
"Hochschule für Musik Karlsruhe",8.42657936765574,49.0045378473552
"Universität Heidelberg, Astronomisches Rechen-Institut",8.68804317234041,49.4177385463161
"Hochschule für Gestaltung - Bahnhofplatz",9.78822970463384,48.8003832645252
"Bildungscampus Ost",9.21766601060642,49.147121306433
"Bildungscampus Ost",9.21766601060642,49.147121306433
NA,8.68521313878827,49.408550860395
NA,8.68867517362834,49.4091331332871
NA,8.68591102636218,49.4095685277119
NA,8.6894376625714,49.4099494789241
"Universität Mannheim",8.46992186150513,49.4810130637628
"Institut für Mittelstandsforschung",8.46670241796878,49.481769690884
"Hochschule Offenburg",7.94243846336836,48.4575561486316
"Hochschule für Wirtschaft und Umwelt",9.33763704602693,48.6274599390525
"Pädagogische Hochschule Schwäbisch Gmünd",9.827970736279,48.7912961051101
"Mathematisches Forschungsinstitut Oberwolfach",8.23552335996455,48.3455181737165
"Hochschule für Technik",9.17224833298955,48.7802480268071
"DHBW Stuttgart",9.15797680623757,48.7701936954803
"Steinbeis Institute of Management and Technology",9.20355408189038,48.7115089405892
"Hochschule der Medien",9.10117912880708,48.7413175943514
"BildungsCampus Gengenbach",8.01979068337042,48.395690509778
"Freie Hochschule Stuttgart",9.19349662531241,48.7828210682563
"Bundesarchiv Abt. Militärarchiv",7.82186895309543,47.9786007636551
"Institut für Übersetzen und Dolmetschen",8.69810650691363,49.4103863017136
"Institut für Bildungswissenschaft",8.69803203043066,49.4099596837936
"Institut für Deutsch als Fremdsprachenphilologie",8.69822741395035,49.4093808496029
"Hochschule Heilbronn Campus Künzelsau Reinhold-Würth-Hochschule",9.71199027346815,49.2752495162103
"Duale Hochschule Baden-Württemberg Mosbach",9.15072606016125,49.3542612206261
"Pädagogische Hochschule Heidelberg",8.66947043155528,49.4201075784031
"Duale Hochschule Baden-Württemberg Mannheim",8.53508745853593,49.4735328787905
"Karlsruher Institut für Technologie",8.36716767179582,49.0216399359263
"Hochschulcampus Tuttlingen der Hochschule Furtwangen",8.81974575312579,47.9819124725569
NA,8.70850545,49.41044875
NA,8.70847972306023,49.4106932681471
NA,8.70849960742495,49.4109504252722
NA,8.70164757129708,49.4097757324668
"Universitätsbibliothek",8.67537421197482,49.4077254250431
"Hochschule Heilbronn - Campus Schwäbisch Hall",9.74402885767813,49.1125513929186
"Universität Hohenheim",9.20537860069853,48.7145682312268
"Hochschule Konstanz",9.16958570919326,47.6677895623904
"Universität Stuttgart",9.0895609834617,48.7512944792059
"Theologicum",9.0550766120501,48.5256949194585
"Technische Hochschule Ulm",10.0062163207506,48.4221335455394
"Technische Hochschule Ulm",9.9395945466051,48.418285163617
"Bildungscampus Mitte",9.21538290426773,49.1483286352327
"Bildungscampus Nord",9.21695703637763,49.1492715319388
"Hochschule Furtwangen Campus Schwenningen",8.53424676901281,48.0610908309703
"Zeppelin Universität - ZF Campus",9.44913213290673,47.6655930932679
"Universität Tübingen",9.03023475,48.53905365
"Institut für Sport und Sportwissenschaft",7.88178591612728,47.9904542448448
"Staatliche Akademie der Bildenden Künste Karlsruhe",8.38729905120678,49.0129575235023
"Albert-Ludwigs-Universität Freiburg",7.83305002849302,48.0145688128848
"Katholische Hochschule Freiburg",7.85663802037677,48.0036460993963
"Theologische Hochschule Reutlingen",9.21113202614666,48.4870311686218
"Campus Hubland Süd",9.97006517287492,49.7808290569271
"Biozentrum",9.97126747607945,49.7802860901959
"Gewächshaus",9.9708898398146,49.7797057682495
"1",11.5679595673605,48.1488393919833
"Universität der Bundeswehr München",11.6351936806459,48.0772467310304
"Gebäude F",11.5684210562353,48.1427768419646
"N6",11.5692655,48.15016435
"N5",11.5691046830438,48.1507501242497
"N4",11.5685544133472,48.1509072228096
"N3",11.5679779032034,48.151065067896
"N3",11.5675376232012,48.1511138082221
"N2",11.5673820765363,48.1505527949946
"Technische Hochschule Aschaffenburg",9.16178553858903,49.9722061386129
"Hörsäle",11.5998041233703,48.1360950097815
"Universität",9.92830282025386,49.7991862537213
NA,9.93295846773889,49.798684689811
NA,9.93323847441138,49.7999573134156
"Institut für Musikforschung",9.93283958910909,49.7914149192171
NA,9.93605636374562,49.788919523468
NA,9.93571389849881,49.7896032636934
"Neue Universität",9.93522940367772,49.7882275715332
"Julius-von-Sachs-Institut",9.93167505439082,49.7660435282286
"Otto-Friedrich-Universität Bamberg",10.9042009099257,49.9073930765047
"Studentenhaus",9.93390039159371,49.7858013232011
"Physikalisches Institut",9.9717478823252,49.7822544125188
"Informatikgebäude (M2)",9.97331232959307,49.7811947446708
"Naturwissenschaftlicher Hörsaalbau",9.97187800304112,49.7815098533268
"MRB 2",9.97190775195679,49.7828686773156
"Verfügungsbau Humangenetik / Physik",9.97488155042196,49.7818537320091
"Philosophische Fakultät",9.96589861674798,49.784244948933
"Institut für Geographie und Geologie (incl. Mineralogisches Museum)",9.97014069208765,49.7824698958965
"Hochschule München",11.5531831894706,48.1534526225425
"Fakultät Informatik",11.1023316193652,49.4581576005586
"Universität Bayreuth",11.5862315509556,49.9278010111461
"Friedrich-Alexander-Universität Erlangen-Nürnberg",11.0162529746125,49.6003963075544
"Haus der Forschung",11.5930695011396,48.1418599207225
"Fakultät für angewandte Sozialwissenschaften Hochschule München",11.451028023381,48.1415755665811
"Biozentrum",9.97130347370017,49.7800894989399
"Technische Hochschule Rosenheim",12.1080756085336,47.8667999478246
"Ostbayerische Technische Hochschule Regensburg",12.0962790287314,49.0030496915375
"Fachhochschule für öffentliche Verwaltung und Rechtspflege",11.727504809289,49.4938306854516
NA,11.8465094336079,49.4445257330827
"7",11.5686510266636,48.1495500375757
"9",11.5669356817091,48.1493113310125
"EIKON-Turm",11.5669974907458,48.148739007955
"Fachhochschule Würzburg-Schweinfurt",9.93320168035619,49.7871964822603
"Sankt Paul",11.1133554316011,49.4369089723689
NA,11.0114573980513,49.6017747450258
"Hörsäle Medizin",11.0130590934875,49.6023355781675
"Hochschule für Musik Nürnberg",11.1086581317488,49.4586394449461
"Veterinärmedizinisches Institut der Universität München",11.5863350963444,48.1514910655464
"Hochschule für angewandte Wissenschaften München",11.5554195110938,48.1596805524005
"Friedrich-Alexander-Universität Erlangen-Nürnberg Südgelände",11.0281228932205,49.5728386072896
"TU München Institut für Pharmakologie",11.59308615,48.1649995
"Nikolaus-Fiebiger-Zentrum für Molekulare Medizin",11.0139896718771,49.5991147104204
NA,11.5539734001205,48.153170079358
"Hochschule für angewandte Wissenschaften München - A Bau",11.5522790700484,48.1530451397783
"Hochschule für angewandte Wissenschaften München - D Bau",11.5526904673787,48.1526371146886
NA,11.5536794007011,48.1529647686829
"Hochschule für angewandte Wissenschaften München",11.5528962267896,48.1534368989326
"Hochschule für angewandte Wissenschaften München",11.5548258998603,48.1595011801131
"Uni Bamberg, Wilhelmsplatz 3 (WP3)",10.8979261638039,49.891451469926
"Institut für Pharmakologie und Toxikologie",11.5589820443644,48.1347598194284
"Physiologisches Institut",11.5605220509619,48.1347034742082
"Hochschule für evangelische Kirchenmusik",11.5723797825157,49.9395363986756
"Gebäude 75",11.6292111,48.07491115
"Gebäude 82",11.6273475756851,48.0737210405017
"Julius-Maximilians-Universität Würzburg, Fakultät Humanwissenschaften",9.95162002265456,49.7866287429092
"Hochschule für angewandte Wissenschaften Coburg",10.9514068055512,50.2650999713717
"Lehrstuhl für Paläoumwelt",11.0181684170385,49.5980362366348
"International Consortium for Research in the Humanities Building D3 (Administration)",11.0236060970284,49.5951758105802
"N8",11.5695551464402,48.1506242018892
"Hochschule München Campus Karlstraße",11.568651636952,48.1434085963527
"Hochschule München Campus Karlstraße",11.568786890987,48.1430877166528
"Institut für Geschichte und Ethik in der Medizin",11.0133533130554,49.5990579585425
"Kaufmännische Direktion",11.010439692365,49.6008489375979
"Institut für Rechtsmedizin",11.0113102955934,49.5974560056223
"FHWS Campus Röntgenring",9.93149909501275,49.7998648850729
"Gebäude 83",11.6268362237137,48.0734801687948
"Gebäude 84",11.6269812400021,48.0747115004865
"Versuchsanstalt Obernach",11.2913248154001,47.5566850616937
"Bayerische Akademie der Wissenschaften",11.5805684140586,48.1413842511139
"5",11.5668590421905,48.1499294916372
"4",11.5662542219479,48.1491698924038
"Audimax",11.5674657031052,48.1494593565374
"2",11.5677395101925,48.1480256295893
"Gebäude A",11.8482943012828,49.4445301999964
"OTH Amberg-Weiden Verwaltung",11.8482823785839,49.4441186802077
"Campus Hubland Nord",9.97374274351047,49.7860341939849
"N1",11.568348993685,48.1503825426575
"6 - Theresianum",11.5677273043894,48.1499306671245
"3",11.5662123617323,48.1483938267602
"Leopold-Mozart-Zentrum der Universität Augsburg",10.8997611490408,48.3656796200769
"Fakultät Werkstofftechnik",11.1023261027986,49.4583944053011
"cbm Centrum Baustoffe und Materialprüfung (TUM)",11.4756589390464,48.1494605451164
"TUM Zentrum Geotechnik",11.4746371086151,48.1492678748382
"Prüfamt für Verkehrswegebau",11.4760795252807,48.1491697054588
"cbm Centrum Baustoffe und Materialprüfung (TUM)",11.4753611882008,48.1491818678999
"Ludwig-Maximilians-Universität",11.5798476156542,48.1504618239273
"Hochschule für Philosophie",11.583005588824,48.1489416814988
"Ludwig-Maximilians-Universität",11.5791333456784,48.1488576995919
"C4 - Anorganische Chemie",9.96933216073119,49.7797286126499
"C6 - Zentrum für Entsorgung und Recycling",9.96931410681993,49.7800240422618
"C1 - Institut für Organische Chemie",9.96797115124513,49.7806636507381
"C7 - Pharmazie u. Lebensmittelchemie",9.9672831577176,49.7805161015396
"C5 - Physikalische und Theoretische Chemie",9.96794084374963,49.7799546451176
"C3 - Zentralbau Chemie",9.96881329974215,49.7801880464308
"C3 - Zentralbau Chemie",9.96862599288766,49.7805680679153
"Z7 - Zentrales Naturwissenschaftilches Praktikumsgebäude",9.96847184567883,49.7792844932443
"Zentrum für Sprachen und Mediendidaktik",9.9748640340403,49.7821178162066
"Mensagebäude",9.968215437505,49.7816078686191
"C2 - Neubau f. Anorganische Chemie",9.96954779454897,49.7804799561896
"Fakultät für Informatik - Gebäude N",10.9025043480248,48.3564549385116
"FHWS",9.93277316238511,49.7874428640059
"Hochschule für Musik",9.94069243301992,49.7946593903729
"FHWS",9.9373204,49.7805325
"Hochschule für katholische Kirchenmusik und Musikpädagogik Regensburg",12.0988455452941,49.024932935121
"Tierärztliche Fakultät",11.5478729548772,48.1640275533416
NA,9.97725374601115,49.7867546246423
NA,9.97407308151906,49.7845789464138
NA,9.97441617801232,49.7859994716028
"Hubschrauber und Psy-Cave",9.97548272460424,49.7840207836279
"Bauleitung",9.97297187054566,49.7852303191185
"Verfügungsgebäude der Fakultät für Humanwissenschaften",9.97729394581791,49.7853149748539
"Physik Ost, Astronomie",9.97225552916536,49.7851582992081
NA,9.9772227521426,49.7874640279665
"Zentralverwaltung",9.97436654253008,49.7867145951759
"Mathematik Ost",9.97339399610987,49.7845360782955
NA,9.97723509763347,49.7860322766119
"Bibliotheks- und Seminarzentrum",9.97575770665724,49.7860372517253
"Chemie",9.97371375308984,49.7852879780181
"Physik West",9.97152624916269,49.7850523175964
NA,9.97636820658465,49.78415310206
"Mathematik West",9.97270839067589,49.7844759986368
"Gebäude 52",9.9744219234184,49.7852897665234
"Student's House",9.9711067275898,49.7865748423265
NA,9.97265201075371,49.7865789211731
"International Graduate School",9.970875180008,49.7848741892819
"Servicezentrum Technischer Betrieb",9.97588482718641,49.7813865057457
"Faculty Club",9.97103384222807,49.7862162912757
"Wissenschaftszentrum Ost- und Südosteuropa Regensburg",12.1026102546216,49.0149432300199
"Fakultät für Humanwissenschaften
Gebäude Wittelsbacherplatz 1",9.95172525115919,49.7867288734081
"Studentenwohnheim",9.97432121962798,49.7881556475668
"Didaktik- und Sprachenzentrum",9.97101920710903,49.787927478506
NA,9.97530236767527,49.7881625448234
"Prüfungsamt",9.97438414984006,49.7874380972106
NA,9.976228421142,49.7881695433678
"Zentrales Hörsaal- und Seminargebäude",9.96895325249677,49.7839639584765
"Verfügungsgebäude der Philosophischen Fakultät",9.97721671977559,49.7881823234039
NA,9.97858404535541,49.7847020082205
"Magnet Resonanz Bayern MR3",9.97338027990637,49.7821709491171
"OTH Amberg-Weiden Bibliothek/RZ",11.8465023859611,49.4441195622732
"Gottfried-Landwehr-Labor für Nanotechnologie",9.971392330174,49.7828714585017
NA,9.97322436249179,49.7822999399039
NA,9.97598292357561,49.7845322827109
"Sportzentrum",9.96794583111038,49.7775395869339
"Robotikhalle (M3)",9.97464729539325,49.7812886399528
"MRB 1",9.971293288778,49.7825559715916
"Gebäude 62",11.6284569085402,48.0778303565263
"Mediadesign Hochschule",11.6036282383828,48.1165488251607
NA,11.6309792153183,48.0752113685815
"OTH Amberg-Weiden",11.8473749242063,49.4441625699532
"Fakultät für Informatik",11.5759192545449,48.1470144191543
"Center for Advanced Studies LMU",11.5903674188162,48.1587878466194
"Ludwig-Maximilians-Universität",11.5828765547472,48.1511528449059
"Rudolf-Wöhrl-Hörsaal",11.0119883020853,49.5989204246061
"Hochschule Weihenstephan-Triesdorf",10.6539172578384,49.2028451218628
"Akademie der Bildenden Künste Nürnberg",11.134901265583,49.4457427176134
"Ostbayerische Technische Hochschule Regensburg",12.0703129447946,49.0173923109198
"Technische Hochschule Nürnberg Georg Simon Ohm",11.0941146840332,49.4523574234026
"Technische Hochschule Nürnberg Georg Simon Ohm",11.0970373817744,49.4528030480744
"Institut für Philosophie",9.93552589845256,49.790184899735
"Helmut Pabel Hörsaal",9.9755041271503,49.7872127716163
"Bibliotheks- und Seminarzentrum",9.9757652276925,49.78611250248
"Markusstraße 8a (MG1/MG2)",10.8826558887353,49.8952881950868
"Technische Hochschule Ingolstadt",11.4337541104878,48.7668529494387
"Friedrich-Alexander-Universität Erlangen-Nürnberg",11.0855173361112,49.4583659068084
"Technische Hochschule Nürnberg Georg Simon Ohm",11.0959625043831,49.4492085036335
"Geodätisches Observatorium Wettzell",12.877664160733,49.1444157352997
"Technische Universität München",11.5677556872525,48.1495553195539
"Wilhelm Löhe Hochschule",10.9978506542066,49.4596781304319
"Hämatologikum des Helmholtz Zentrums München",11.4671192559926,48.112847749977
NA,11.0263151161798,49.5436283977754
"Katholische Universität Eichstätt-Ingolstadt – Wirschaftswissenschaftliche Fakultät",11.4159066767345,48.7659549285527
"Hochschule Amberg-Weiden",12.1773747217423,49.6704300794033
"Universität Passau",13.4516659247443,48.567088991226
"Rechenzentrum der Universität Würzburg",9.97354503197133,49.7818073495086
"Wissenschaftszentrum Straubing",12.5843843220027,48.8837677860547
NA,12.0866086,48.98804035
NA,11.7805169771863,50.1928780394245
"Pathologisches Institut der LMU",11.5649377870935,48.1300388501539
"Limnologische Station der TU München",11.3180226741404,47.7708472104399
"LMU Fakultät für Chemie und Pharmazie",11.4670367879986,48.1140020129517
"Neurologisches Forschungshaus des Uniklinikums Großhadern",11.4680145825659,48.1130410938206
"Hochschule Kempten",10.3132793330577,47.7150809472921
"Technologie Campus Teisnach",13.00418895,49.0258977
"Studentenhaus",9.93437326430241,49.7859849486468
NA,9.96751287718164,49.7807174684909
"Hochschule Landshut / Hochschule für angewandte Wissenschaften",12.1842007047682,48.5505787430953
"Hochschule Neu-Ulm",10.0099278095762,48.3802935336491
NA,11.7295704337419,48.4020323908798
"Hochschule für angewandte Wissenschaften München, Campus Karlstraße",11.5687775553966,48.1429852924573
NA,11.02487321513,49.5441199012823
"TUM Zentrum Geotechnik",11.475309933982,48.149117308916
"Max Kneißl Institut für Geodäsie",11.3339981888793,48.1770525471517
"Hochschule Augsburg",10.9051500659743,48.3552016363435
"Hochschule für angewandte Wissenschaften, Fachhochschule Würzburg-Schweinfurt, Abteilung Schweinfu",10.2208344092513,50.0454629927112
"Technische Hochschule Nürnberg Georg Simon Ohm",11.1023518735703,49.4582188832391
NA,11.8468726046699,49.4434478666331
NA,11.8465105638104,49.4434471742148
NA,11.8482403630685,49.4434505790521
NA,11.84787755,49.44344985
NA,11.8473700710212,49.443448848268
"Laborräume der Fakultät für Physik und Astronomie",9.97320043706316,49.782728046022
NA,11.8474182906607,49.4435517349718
"Kompetenzzentrum für Nachwachsende Rohstoffe",12.5839953286906,48.8844730042973
NA,9.96760418170002,49.7811559563459
"Institut für Geschichte der Medizin",9.95188184862597,49.7759972681838
"Lehrstuhl für Kunststofftechnik / Lehrstuhl für Technische Thermodynamik",11.0248292215093,49.5428528765741
"Holzforschung München",11.5620332740197,48.1630404598521
NA,11.0291845415282,49.5943836882287
NA,11.0278890839429,49.5944884625837
"Tumorzentrum Erlangen-Nürnberg, Uni-Klinikum",11.0277770444997,49.5953482458124
"Technische Hochschule Deggendorf",12.9546613723515,48.8295429339199
NA,10.7118738,50.11196105
"Technische Hochschule Nürnberg Georg Simon Ohm",11.0960387598003,49.4482213779109
"Institut für Philosophie",9.93833224447663,49.7925191472784
NA,11.0141109931348,49.5994584019115
"Friedrich-Alexander-Universität Erlangen-Nürnberg",11.0147105994014,49.5999585198618
"Institut für Organische Chemie",11.0124020798437,49.5938589105169
"Hochschule Augsburg",10.9067406406072,48.3585198585564
"Technikum 1 / Neue Materialien (ZMP)",11.009553428188,49.469033714522
NA,9.96922379659089,49.7803776145975
NA,11.1869507117686,48.8914091256712
"Geobau",11.1878695067023,48.8900153568007
"Oberer Neubergweg 10a",9.95208895,49.776058
NA,9.93325106192811,49.7907191885767
"Akademie der Bildenden Künste München",11.5801034059027,48.1531257422779
"Dieter-Thoma-Labor",11.5669931344614,48.1484408503702
"Naturwissenschaftliche Fakultät",11.0291357270004,49.5796378629219
"Hochschule für angewandte Wissenschaften München - X Bau",11.5546513986534,48.1550988419284
"Katholische Universität Eichstätt-Ingolstadt",11.1897580806708,48.8888135352765
"Biomedizinisches Zentrum der LMU",11.4591520966512,48.1108850288138
"Fakultät für Biologie der LMU",11.4591310096977,48.1089712216466
"Friedrich-Alexander-Universität Erlangen-Nürnberg Wirtschafts- und Sozialwissenschaftliche Fakult",11.0794558554743,49.4522616469689
"Hochschule für angewandte Wissenschaften München - C Bau",11.5532018551596,48.1526010576614
"Versorgungszentrum",11.0131495329939,49.6015749726061
"Technische Universität München",11.6698671898943,48.2657761706313
"Hochschule München Campus Karlstraße",11.5687753175961,48.1432966492203
"Hochschule München Campus Karlstraße",11.5690309098959,48.1426052936357
"Hochschule München Campus Karlstraße",11.5691374711753,48.142998134697
"Hochschule München Campus Karlstraße",11.5687792733152,48.1427841788023
"Hochschule München Campus Karlstraße",11.5687792733152,48.1427841788023
"Hochschule München Campus Karlstraße",11.5684823098096,48.1433736917754
"Nano-Institut der Ludwig-Maximilians-Universität München",11.5858361938344,48.1516931834308
"Hans-Haffner-Sternwarte des FKG",9.79599892307825,49.793916938482
NA,11.77989995,50.19304005
NA,11.78006315,50.19332185
"Ludwig-Maximilians-Universität München, Institut für Informatik",11.5943468371469,48.150065729326
"Gästehaus der Universität Würzburg",9.93343427696673,49.7855787124526
"Tierärztliche Fakultät der Ludwig-Maximilians-Universität München",11.5460035316402,48.2469783617182
"OTH Amberg-Weiden Fakultät MB/UT",11.8473706308607,49.4437337397805
"Universität Regensburg",12.0950851059867,48.9958269540986
"FHWS Fachbereich Gestaltung",9.93390153651377,49.7876460502498
"Ludwig-Maximilians-Universität",11.583521407386,48.1496223301456
"Ludwig-Maximilians-Universität",11.5605609387797,48.1329228118123
"Institut für Kunstgeschichte",11.564164716948,48.1583504370852
"C8 - Center for Nanosystems Chemistry",9.96925545114216,49.77943403867
NA,12.5040646186241,48.6329865206054
"Institut für Lern-Innovation",11.009485380327,49.4695244581302
"Karlsruher Institut für Technologie",8.36716767179582,49.0216399359263
NA,11.0086841215396,49.5944361741324
NA,11.0309613836554,49.5955058857455
"Friedrich-Alexander-Universität Erlangen-Nürnberg Röthelheimpark",11.0285307913539,49.5944276525829
"FAU Campus Regensburger Straße",11.1120748647909,49.4382810071134
NA,9.97377079583866,49.7881913845127
"Leibniz-Institut für Lebensmittel-Systembiologie",11.7110828790154,48.3980339494642
"Universitätsgelände Geschwister-Scholl-Platz",11.5507647710209,49.9485716879692
"Ludwig-Maximilians Universität München - Institut für Soziologie",11.5771184851893,48.1556471693542
NA,10.8865384250094,48.3530279968117
"N9",11.5677710892887,48.150758722746
"Hochschule für angewandte Wissenschaften München",11.5541482102363,48.1552668357168
"Bayreuther Zentrum für Ökologie und Umweltforschung",11.5953560948368,49.960148011809
"CETPM Campus Herrieden",10.4952465209597,49.2457992475685
"Lehrstuhl für Aquatische Systembiologie",11.7234756839187,48.3939083317009
NA,11.7331111125973,48.3983779812244
NA,11.7098752580899,48.3942117795201
NA,11.0072557748462,49.5972031332926
NA,11.0122175554328,49.5937536735861
NA,11.00499426803,49.5988931630872
NA,11.4593962441848,48.1102791828758
"Ludwigs-Maximilian-Universität",11.5729357760383,48.1480798934722
"Beuth Hochschule für Technik Berlin",13.3527991540388,52.5444452008595
"Universität der Künste",13.3039289950488,52.5243999418409
"ZE Hochschulsport",13.1848999336249,52.432798045375
"Theologische Fakultät der HU",13.4010508516698,52.5210756351467
"European School of Management and Technology Berlin",13.4018415342188,52.5152511089103
"Medienhaus der Universität der Künste",13.3588139315578,52.4908116079891
"Haus T",13.356065740389,52.4270191812615
"FU Berlin GeoCampus",13.358046953201,52.4264430066562
"FB Mathematik und Informatik",13.2969575561949,52.4575873423043
"ZE Hochschulsport",13.2899918536553,52.4590062085499
"Universität der Künste Berlin",13.3299987713846,52.4986296651196
"Universität der Künste Berlin",13.3328053483483,52.4998250285846
"FB Biologie, Chemie, Pharmazie",13.3066022306966,52.4585814743854
"Charité-Standort Thielallee/Garystraße",13.283299197935,52.4464194686081
"Zentrale Tierlaboratorien",13.3169613176048,52.4365890645456
"Institut für Mikrobiologie und Hygiene der Charité",13.3169217769404,52.4381157124757
"Evangelische Hochschule Berlin",13.2615106365097,52.4232318840568
"Universität der Künste",13.3277575363787,52.5096590167636
NA,13.3058576051793,52.4584111529515
"International Psychoanalytical University",13.3425726727528,52.5236068808849
"Humboldt-Universität Campus Adlershof",13.5305888996389,52.4316544872597
"Hochschule für Technik und Wirtschaft Berlin Campus Wilhelminenhof",13.5259079201297,52.4562644057904
NA,13.3875315510406,52.5183078405922
"Wirtschaftswissenschaftliche Fakultät der HU",13.4027308555108,52.5209332942558
NA,13.3910911666659,52.5215340079819
"Freie Universität Berlin",13.2798747714353,52.4476401873798
"FU Institut f. Pharmazie",13.3574485202737,52.451563531545
"FU Fachbereich Veterinärmedizin",13.2368422589579,52.4285704505287
"Kunsthochschule Berlin-Weißensee",13.4396448632878,52.5582466020357
"ESCP Europe",13.289338063153,52.5240062365764
"Overseas Campus Stanford University",13.289760588988,52.4658772869236
"Jazz-Institut Berlin",13.3230502892684,52.5169350898503
"Universitätsarchiv – Universität der Künste Berlin",13.3221138425442,52.517089470955
"FB Veterinärmedizin",13.2870809809585,52.4538695138991
NA,13.2943551679264,52.4611868912986
"FB Geschichts- und Kulturwissenschaften",13.2890865795884,52.447361845753
"FB Biologie, Chemie, Pharmazie",13.3016497647989,52.4664304156358
"FB Biologie, Chemie, Pharmazie",13.3002374,52.4660126
"Universität Potsdam Komplex Griebnitzsee",13.1283193740774,52.393005405602
"Hasso-Plattner-Institut",13.1321714372922,52.3935614803037
"HPI Campus II",13.1244772984228,52.3921856664667
"Humboldt-Universität zu Berlin",13.3931530816254,52.5186988300154
"FB Biologie, Chemie, Pharmazie",13.3062303685827,52.459624058662
"Universität der Künste Berlin",13.3342813461087,52.4965941412185
"Charité Centrum 3 für Zahn-, Mund- und Kieferheilkunde / Außenstandort Aßmannshauser Straße 4-6",13.3125776543924,52.4769027364926
"Humboldt-Universität Sportzentrum Adlershof",13.5239598173818,52.4225393938564
"FB Politik- und Sozialwissenschaften",13.27573945,52.44942265
"Humboldt-Universität zu Berlin",13.2986865842137,52.4674894593487
"Freie Universität Berlin",13.3009892991526,52.466120651816
NA,13.284952485257,52.4520018219128
"FB Biologie, Chemie, Pharmazie",13.3576896938883,52.451847786268
"FB Biologie, Chemie, Pharmazie",13.3065519882273,52.4594059329817
"Hochschule für Schauspielkunst Ernst Busch",13.3828609764161,52.5326402387252
"FB Politik- und Sozialwissenschaften",13.2760009926393,52.4486568031524
"Wirtschafts- und Sozialwissenschaftliche Fakultät",13.1205824418761,52.3965134226554
"FB Veterinärmedizin",13.2879620085628,52.4596296518324
"HU Berlin - Juristische Fakultät",13.3926973976418,52.5165297143041
NA,13.3170593580399,52.438076469365
"Forschungseinrichtung für experimentelle Medizin",13.3173562313488,52.4365944019306
"Medizinische Akademie IB Hochschule",13.3721391095332,52.54534842763
"Institut für Marketing und Kommunikation",13.3814358960296,52.5357121938054
"Humboldt-Universität Campus Nord",13.3795986969837,52.530714108133
"Freie Universität Berlin",13.2944414694034,52.4611631113938
NA,13.301608516379,52.4576300176012
NA,13.3909665893241,52.5204983932104
"Akademie der Künste",13.3466659545273,52.5183879430411
"FB Philosophie und Geisteswissenschaften",13.288340661698,52.4497804113974
"HPI Campus III",13.124652152308,52.3947459623169
"Haus C",13.1323468427241,52.3934016349221
"Haus B",13.1319166474201,52.3935290016758
"Haus A",13.1314572522139,52.3933650758726
"Technische Universität Berlin",13.3160174425234,52.4571373039101
"Hochschule für Wirtschaft und Recht Berlin - Campus Schöneberg",13.3348061865351,52.4841932583655
"FU Institut f. Pharmazie",13.3577649960726,52.4515870240808
"Hochschule für Wirtschaft, Technik und Kultur",13.3778617193168,52.5050091433633
"Alice-Salomon-Hochschule",13.6061134488353,52.5371467913135
"Institut für Pflanzenphysiologie und Microbiologie",13.3018878009378,52.4578126743166
"TU Berlin - Gebäudekomplex Gärungsgewerbe-Biotechnologie",13.3426393827809,52.5448361027432
NA,13.3102617420058,52.4682791897989
NA,13.3067996741505,52.4597815719756
"Freie Universität Berlin",13.2900345807025,52.4527978607555
"TU Berlin - Campus Dahlem",13.2991128883014,52.4565883561002
"Beuth Hochschule für Technik Berlin",13.3527991540388,52.5444452008595
"Universität der Künste",13.3039289950488,52.5243999418409
"Brandenburgische Technische Universität Cottbus-Senftenberg",14.3194142274016,51.7264137771331
"ZE Hochschulsport",13.1848999336249,52.432798045375
"Theologische Fakultät der HU",13.4010508516698,52.5210756351467
"European School of Management and Technology Berlin",13.4018415342188,52.5152511089103
"Medienhaus der Universität der Künste",13.3588139315578,52.4908116079891
"Haus T",13.356065740389,52.4270191812615
"FU Berlin GeoCampus",13.358046953201,52.4264430066562
"BTU-Cottbus Campus Nord",14.2941843956587,51.7769364734579
"FB Mathematik und Informatik",13.2969575561949,52.4575873423043
"ZE Hochschulsport",13.2899918536553,52.4590062085499
"Universität der Künste Berlin",13.3299987713846,52.4986296651196
"Universität der Künste Berlin",13.3328053483483,52.4998250285846
"Technische Hochschule Wildau [FH]",13.6307657419764,52.3184248916444
"FB Biologie, Chemie, Pharmazie",13.3066022306966,52.4585814743854
"Charité-Standort Thielallee/Garystraße",13.283299197935,52.4464194686081
NA,13.0572553975813,52.3966240922016
"Zentrale Tierlaboratorien",13.3169613176048,52.4365890645456
"Institut für Mikrobiologie und Hygiene der Charité",13.3169217769404,52.4381157124757
"Bildungs- und Wissenschaftszentrum der Bundesfinanzverwaltung",12.8781100353212,52.3856370019599
"Evangelische Hochschule Berlin",13.2615106365097,52.4232318840568
"Universität der Künste",13.3277575363787,52.5096590167636
NA,13.3058576051793,52.4584111529515
"International Psychoanalytical University",13.3425726727528,52.5236068808849
"Oberstufenzentrum Teltow-Fläming Abteilung 1",13.2744096349171,52.3161462416208
"Humboldt-Universität Campus Adlershof",13.5305888996389,52.4316544872597
"Hochschule für Technik und Wirtschaft Berlin Campus Wilhelminenhof",13.5259079201297,52.4562644057904
NA,13.3875315510406,52.5183078405922
"Wirtschaftswissenschaftliche Fakultät der HU",13.4027308555108,52.5209332942558
NA,13.3910911666659,52.5215340079819
"Freie Universität Berlin",13.2798747714353,52.4476401873798
"FU Institut f. Pharmazie",13.3574485202737,52.451563531545
"FU Fachbereich Veterinärmedizin",13.2368422589579,52.4285704505287
"Auditorium maximum",14.5563933567146,52.3423208669977
"Kunsthochschule Berlin-Weißensee",13.4396448632878,52.5582466020357
"ESCP Europe",13.289338063153,52.5240062365764
"Technische Hochschule Brandenburg",12.5378474446339,52.4107801079694
"Overseas Campus Stanford University",13.289760588988,52.4658772869236
"Europa-Universität Viadrina",14.5542764895206,52.3422825935943
"Europa-Universität Viadrina",14.557380546292,52.3410780963444
"Jazz-Institut Berlin",13.3230502892684,52.5169350898503
"Campus Fachhochschule Potsdam",13.0507601152846,52.4125677935218
"Universitätsarchiv – Universität der Künste Berlin",13.3221138425442,52.517089470955
"FB Veterinärmedizin",13.2870809809585,52.4538695138991
NA,13.2943551679264,52.4611868912986
"FB Geschichts- und Kulturwissenschaften",13.2890865795884,52.447361845753
"Elbauenstation (Uni Hamburg)",11.4547257139003,53.0577792302002
"FB Biologie, Chemie, Pharmazie",13.3016497647989,52.4664304156358
"FB Biologie, Chemie, Pharmazie",13.3002374,52.4660126
"Universität Potsdam Komplex Griebnitzsee",13.1283193740774,52.393005405602
"Hasso-Plattner-Institut",13.1321714372922,52.3935614803037
"HPI Campus II",13.1244772984228,52.3921856664667
"Humboldt-Universität zu Berlin",13.3931530816254,52.5186988300154
"FB Biologie, Chemie, Pharmazie",13.3062303685827,52.459624058662
"Brandenburgische Technische Universität Cottbus-Senftenberg",14.3242694796595,51.7677103807941
"Universität der Künste Berlin",13.3342813461087,52.4965941412185
"Länderinstitut für Bienenkunde",13.268483,52.67510565
"Charité Centrum 3 für Zahn-, Mund- und Kieferheilkunde / Außenstandort Aßmannshauser Straße 4-6",13.3125776543924,52.4769027364926
"Humboldt-Universität Sportzentrum Adlershof",13.5239598173818,52.4225393938564
"Forstbotanischer Garten Eberswalde",13.7920502144547,52.8243536059753
"FB Politik- und Sozialwissenschaften",13.27573945,52.44942265
"Humboldt-Universität zu Berlin",13.2986865842137,52.4674894593487
"Freie Universität Berlin",13.3009892991526,52.466120651816
"Universität Potsdam: Campus II - Golm",12.9759200552918,52.4082895117548
"OSZ Werder Oberstufenzentrum",12.9276200419226,52.381071933292
"Theologische Hochschule Elstal",13.0030314122374,52.5433531298587
"Brandenburgische Technische Universität Cottbus-Senftenberg",13.9862612775565,51.522306921509
NA,13.284952485257,52.4520018219128
"FB Biologie, Chemie, Pharmazie",13.3576896938883,52.451847786268
"Filmuniversität Babelsberg „Konrad Wolf“",13.1166356566411,52.389087612149
"FB Biologie, Chemie, Pharmazie",13.3065519882273,52.4594059329817
"Hochschule für Schauspielkunst Ernst Busch",13.3828609764161,52.5326402387252
"FB Politik- und Sozialwissenschaften",13.2760009926393,52.4486568031524
"Landesinstitut für Schule und Medien Berlin-Brandenburg",13.2306704591486,52.3206355020544
"Wirtschafts- und Sozialwissenschaftliche Fakultät",13.1205824418761,52.3965134226554
"FB Veterinärmedizin",13.2879620085628,52.4596296518324
"HU Berlin - Juristische Fakultät",13.3926973976418,52.5165297143041
NA,13.3170593580399,52.438076469365
"Forschungseinrichtung für experimentelle Medizin",13.3173562313488,52.4365944019306
"Medizinische Akademie IB Hochschule",13.3721391095332,52.54534842763
"Institut für Marketing und Kommunikation",13.3814358960296,52.5357121938054
"Humboldt-Universität Campus Nord",13.3795986969837,52.530714108133
"Freie Universität Berlin",13.2944414694034,52.4611631113938
NA,13.301608516379,52.4576300176012
NA,13.3909665893241,52.5204983932104
"Collegium Polonicum",14.5592901915455,52.3485435396108
"Ökologische Station Gülpe der Universität Potsdam",12.2118602460082,52.7333623275432
"Akademie der Künste",13.3466659545273,52.5183879430411
"FB Philosophie und Geisteswissenschaften",13.288340661698,52.4497804113974
"HPI Campus III",13.124652152308,52.3947459623169
"Haus C",13.1323468427241,52.3934016349221
"Haus B",13.1319166474201,52.3935290016758
"Haus A",13.1314572522139,52.3933650758726
"Universität Potsdam: Campus I - Am Neuen Palais",13.0100630396885,52.4015706709098
"Technische Universität Berlin",13.3160174425234,52.4571373039101
"Hochschule für Wirtschaft und Recht Berlin - Campus Schöneberg",13.3348061865351,52.4841932583655
"FU Institut f. Pharmazie",13.3577649960726,52.4515870240808
"Hochschule für Wirtschaft, Technik und Kultur",13.3778617193168,52.5050091433633
"Alice-Salomon-Hochschule",13.6061134488353,52.5371467913135
"Institut für Pflanzenphysiologie und Microbiologie",13.3018878009378,52.4578126743166
"TU Berlin - Gebäudekomplex Gärungsgewerbe-Biotechnologie",13.3426393827809,52.5448361027432
NA,13.3102617420058,52.4682791897989
NA,13.3067996741505,52.4597815719756
"Freie Universität Berlin",13.2900345807025,52.4527978607555
"TU Berlin - Campus Dahlem",13.2991128883014,52.4565883561002
"Jacobs University Bremen",8.65136443655575,53.1670712686721
"Universität Bremen (ZARM, Fallturm)",8.8579055457075,53.1103684122231
"Hochschule für Künste Bremen",8.76776683746146,53.0982178236219
"Hochschule Bremen",8.78384366079042,53.0552299138953
"Universität Bremen",8.84640283363533,53.1055509690605
"0.027.1",8.85492458896923,53.1059381095595
"Fachhochschule Wedel",9.72846451110508,53.5780039681401
"ESA: Flügel Ost",9.98904390693627,53.5625268933292
"ESA: Flügel West",9.98746224574647,53.5633398636915
"Bucerius Law School",9.98361455792494,53.5593955724113
"DESY/HERMES",9.90401093062784,53.5858712294038
"Hochschule für Angewandte Wissenschaften Campus Berliner Tor",10.0231450684684,53.5566014193871
"Hochschule für Angewandte Wissenschaften",10.0214819788759,53.5548028123767
"68 (Institut für Experimentalphysik)",9.8863102,53.5777693
"Technologiezentrum Hamburg-Finkenwerder",9.85105209278095,53.5379731501738
"Institut für Bodenkunde",9.98281573706495,53.5679173005684
"Kühne Logistics University",9.99437217818213,53.540572872263
"Institut für Deutsche Gebärdensprache und Kommunikation Gehörloser",9.98443749276414,53.5681975608581
"Informatikum",9.93342225282435,53.5994641314365
"Fachbereich Bewegungswissenschaften",9.9913876481371,53.5697999384827
"Landesinstitut für Lehrerbildung und Schulentwicklung (LI)",9.96306584423987,53.570169480885
NA,9.98750882079747,53.5669082974146
"Hamburger Sternwarte",10.2405362445912,53.4804013282407
"Hochschulsport Hamburg",9.99095232758066,53.5705282983933
"Hans-Bredow-Institut",9.98964866478128,53.5656108134513
"Fakultät der Geisteswissenschaften",9.99155787491138,53.5662131620812
NA,9.97764155,53.5729277
"Institut für Volkskunde",9.9772429112288,53.5726768991036
"Musikwissenschaftliches Institut",9.99403047701477,53.5612680110362
"Hochschule für Musik und Theater",9.99889619810119,53.5701955440912
"Budge-Palais",9.9988294537281,53.5705914287127
"HAW Hamburg, Design",10.0224377135785,53.5651310598995
"Akademie der Polizei Hamburg",10.0005978839698,53.6024284416843
"N55 Campus Lehre",9.97368758606238,53.5937613700894
"Kunst- und Mediencampus Hamburg",10.0341486671772,53.5690715283283
"Hochschule für bildende Künste",10.031524077661,53.5675302089843
"Universität Hamburg - Hauptgebäude",9.98838730852232,53.5630253081114
"Institut für Hydrobiologie und Fischereiwissenschaft",9.94419617207389,53.5454182482405
"69",9.88640680657004,53.5773911427745
"Institut für Laserphysik",9.88665672502878,53.5771004310815
"Technische Universität Hamburg",9.96920832199009,53.4609685321702
"HAW - Life Sciences - Campus Bergedorf",10.1994458031542,53.494291017811
"Physikalische Institute Jungiusstraße",9.98184145055199,53.5588963666882
"67",9.88583229433513,53.5782533792348
"Hamburg School of Business Administration",9.99036272221211,53.5493491631619
"Hochschule für Angewandte Wissenschaften",10.017755200467,53.5550189680105
"Biozentrum Klein Flottbek",9.85929734233816,53.5598898476992
"HafenCity Universität Hamburg",10.0047595803422,53.5402649142763
"ILS - Institut für Lernsysteme GmbH",10.1509183509856,53.6036455782978
"Hochschule für Angewandte Wissenschaften",10.0177031509357,53.5556202590239
"Europa-Kolleg Hamburg",9.87101956072484,53.5675478128211
"Hochschule für Musik und Theater Hamburg",9.99911918694856,53.5703107573749
"Universität Hamburg",9.9745561871165,53.5677753166047
"Zentrum für Bioinformatik",9.97760867014073,53.5666002128325
"Carl Friedrich von Weizsäcker-Zentrum für Naturwissenschaft und Friedensforschung",9.9758583344839,53.5696204103371
"Helmut-Schmidt-Universität - Universität der Bundeswehr Hamburg",10.1108345627896,53.5688151743131
"Johann-Wolfgang-Goethe-Universität Campus Westend",8.66732000851139,50.1269836785789
"Frankfurt University of Applied Sciences",8.69252734204357,50.1305545828164
"Johann-Wolfgang-Goethe Universität - Campus Riedberg",8.63037023722803,50.1727025576332
"Kunsthochschule Kassel",9.48902636661917,51.3043698896571
"A12",8.6825894893336,50.5867419863647
"Zeughaus",8.67829717115393,50.5876260966829
"Evangelische Hochschule Darmstadt",8.62747046634697,49.8738358414603
"Universität Kassel, Standort Wilhelmshöher Allee",9.47413768906264,51.3111531141774
"Biochemisch-Pharmakologisches Centrum Marburg",8.80751313209583,50.8042474262769
"Botanischer Garten",8.80903272701367,50.8020075557961
"Campus Lahnberge",8.8087885127544,50.8064905237953
"Philosophische Fakultät",8.78019148967502,50.8102420261929
"WiWi-2",8.76611765971198,50.8064508725005
"WiWi-1",8.76699838432659,50.8069920653604
"WiWi-Pavillon",8.76672011763009,50.8071446687047
"Landgrafenhaus",8.77092462266485,50.8075862531172
"Universität Kassel, Heinrich-Plett-Straße",9.44964686962861,51.2830431332712
"Studierendenhaus",8.77651822949946,50.8083914088958
"Philipps-Universität Marburg - Campus Firmanei",8.77235678928508,50.8124639201059
"Marburger Schloß",8.76645430313167,50.8099301570773
"Philipps-Universität Marburg - Campus Geisteswissenschaften",8.78013000683791,50.8098009964839
"N380",8.63353799523694,50.1742141613852
"Kugelhaus",8.7660803693909,50.8082778925459
"Altes Landgericht",8.76877623564017,50.8097916837034
"Justus-Liebig-Universität Campusbereich Seltersberg/Veterinärmedizin",8.65899639699015,50.5738321496716
"Justus-Liebig-Universität Mathematisches Institut",8.67029812857154,50.5737957538188
"Institut für Medizinische Biometrie und Epidemiologie (IMBE)",8.77306574683371,50.8144098173591
"Institut für pharmazeutische Biologie und Biotechnologie",8.77089246502712,50.8166854543966
"Anatomie",8.77165826604218,50.8158905134515
"Zytobiologie",8.77118496698509,50.8162141473984
"Erziehungswissenschaften",8.77807190232459,50.8039634975877
"Fachbereich Physik",8.76890718209156,50.81130732035
"Geschichte der Pharmazie",8.76851641334358,50.8132721763232
"Freie Theologische Hochschule Gießen",8.69315345763447,50.5731557958745
"Zentrum für Psychische Gesundheit",8.78113211218338,50.8181155595912
"N100",8.63066114545676,50.1721529440093
"S 121",8.6307291451853,50.1727450711758
"N201",8.62878444025459,50.1726823728506
"Universität Kassel - Campus Holländischer Platz",9.50563193046924,51.3230137607979
"Lutherische Theologische Hochschule",8.55560112842277,50.2096242989155
"Walther-Leisler-Kiep-Center",8.04930201292525,50.012356439746
NA,8.05037961945607,50.0120451862203
"European Business School",8.04956833086031,50.0121087179405
NA,8.05021074058334,50.012780253266
"N200",8.62949852008673,50.1726932139058
"N220",8.6298104907035,50.1721934254143
"N240",8.63015632023635,50.1717387350017
"N161",8.6322911139261,50.1728303438772
"N230",8.62948218954312,50.1718341050368
NA,8.21587838343811,50.0982436154262
"Hochschule RheinMain",8.21619087977022,50.0976329331788
"Städelschule Architecture Class",8.67572190384993,50.1022411922395
"Wiesbaden Business School",8.23063983293085,50.0803357113329
"Taxi Point",8.66573252939208,50.1238804976655
"Technische Hochschule Mittelhessen",8.7919066,51.0569106152665
"Alte Universität",8.77166123939018,50.8080254538033
"N120",8.63102550993584,50.1724622711199
"N160",8.63186332028501,50.1728064081587
"N140",8.63158582860764,50.1724553625087
NA,8.64356405488081,49.8705485651751
"Schloß Rauischholzhausen",8.8817101778161,50.7563607323358
"Center for Environmental Systems Research",9.47944860813499,51.3114467492193
"h_da FB Wirtschaft (D21)",8.63647869203402,49.864005813269
"Berufsakademie Rhein-Main",8.8064014814452,49.9752722970308
"h_da Campus Dieburg",8.8566012508195,49.9016011417392
"h_da F01",8.8555970361968,49.9021691268227
"h_da F14",8.8565367109949,49.9024820154429
"h_da F15",8.85672696425819,49.9019994349365
"h_da F16",8.85765118295345,49.9030375674778
"Biologicum",8.62806911873487,50.1722473063388
"N320",8.63196674131249,50.1742195627132
"N330",8.63242059216591,50.1744220456968
"N340",8.63289782751443,50.17461767703
"N350",8.6325426422633,50.1738752338806
"N360 / 370",8.63309664355014,50.1741121212835
"N410 Geozentrum",8.63379474839392,50.1738825493359
"N420 Geozentrum",8.63432547181966,50.173710987725
"N430 Geozentrum",8.63375010260473,50.1735420940474
"Flügel C",8.6279032839651,50.1720194628417
"Flügel D",8.62811549573269,50.1716950656473
NA,8.63440017703825,50.173415757926
NA,8.63240950180804,50.1741093435414
NA,8.63291141754053,50.1743209749497
NA,8.6318562445439,50.1738915557937
NA,8.62843179746859,50.172016318906
"Hochschule RheinMain",8.42448825772236,49.9850338024845
"Wissenschaftliches Zentrum für Informationstechnik-Gestaltung",9.4786213161372,51.3111125848448
"Bibliothek",9.1789732166211,50.9123069573905
"B21",8.68096936368234,50.5833154228124
"B21",8.680922433221,50.5834743040294
"Landwirtschaftliche Lehr- und Forschungseinrichtung ""Launsbacher Weg""",8.66756503567779,50.598380586306
"Fachbereich Pharmazie",8.76361099318017,50.8137550698768
"Hochschule Geisenheim University",7.95825185691362,49.9838909539648
"N 265",8.6310855,50.1696567
NA,8.63189295192289,50.1738522738721
NA,8.63161477798077,50.1737553542729
"N310",8.63145905423868,50.1740326168706
NA,9.85540138688696,51.3497276304243
"EBS Campus Rheingau Burg",8.03208932265211,50.0055475436065
"N162",8.63227203773897,50.172550154687
"N260",8.63054288041904,50.171285129579
"N210",8.62918522942137,50.1723122591923
"N250",8.62977019447584,50.1713571591367
"Staatliche Hochschule für Bildende Künste - Städelschule Frankfurt am Main",8.67475296225223,50.1023261895135
"Hochschule für Gestaltung",8.76469034047609,50.1076085677398
"Hochschule RheinMain",8.23067729698857,50.0800582864887
NA,8.68179927642275,50.5823591758265
"Landwirtschaftliche Lehr- und Forschungseinrichtung Rauischholzhausen",8.8803222238923,50.7607122636892
"Goethe Universität - Campus Bockenheim",8.6509140916948,50.1181288662192
"Zahnheilkunde",8.78299678602291,50.8157330413865
"Institut für Sport und Sportwissenschaft",9.48382206198815,51.2972986372791
"Versuchsgärtnerei",8.87669834839183,50.7548894198158
"Seminarpavillon",8.66937676021252,50.1309573347986
"Universitätsstadion",8.7743028844224,50.8028635607628
"Justus-Liebig-Universität - Campusbereich Philosophikum II",8.69997771391415,50.5736528264229
"Justus-Liebig-Universität - Campusbereich Philosophikum I",8.69396641580795,50.5763560764967
"Justus-Liebig-Universität Campusbereich Recht und Wirtschaft",8.69395241181313,50.5811620576318
"Justus-Liebig-Universität Campusbereich Sport/Kugelberg",8.70106779150355,50.5847900433359
"Justus-Liebig-Universität Campusbereich Zeughausbereich",8.67858274474077,50.5868302878439
"Technische Hochschule Mittelhessen (THM)",8.758498009993,50.3301196816807
"Technische Hochschule Mittelhessen (THM)",8.7597758434728,50.3314611865345
"Forschungszentrum Deutscher Sprachatlas",8.77223496462085,50.8108891127404
"Universität Kassel - Villa Rühl",9.50952177367214,51.3244201791018
"Forschungszentrum Neu-Ulrichstein",9.03219882469516,50.7533778861924
"Frankfurt School of Finance & Management",8.68010373182569,50.1327808740125
"Hochschule RheinMain",8.21661751641497,50.0970227653697
"Technische Hochschule Mittelhessen (THM)",8.75651625525885,50.3280189959843
"Technische Hochschule Mittelhessen",8.6769476935237,50.5826873404241
"Technische Hochschule Mittelhessen",8.68078396892884,50.5853813017134
"Technische Hochschule Mittelhessen",8.6811008166807,50.5901863613032
"Technische Hochschule Mittelhessen",8.68346851862446,50.5865002712733
"Justus-Liebig-Universität Campusbereich Seltersberg",8.67405687223631,50.5687521947395
"Justus-Liebig-Universität Campusbereich Universitätszentrum",8.67787283264322,50.5804924212194
"Justus-Liebig-Universität Campusbereich Seltersberg/Medizin",8.6671307692138,50.5707242689514
"Technische Universität Darmstadt",8.58976162655314,49.8592441427238
"h_da F20",8.85875343585129,49.9030750346683
"Hochschule Geisenheim University",7.95786985969821,49.9813252763348
"Hchschule Geisenheim University",7.96082093928844,49.9826307780591
"Hchschule Geisenheim University",7.9643110620786,49.9855783564129
"Hochschule Geisenheim University",7.96272839094802,49.9834483697553
"Hochschule Geisenheim University",7.94881922477357,49.9847488938723
"Hochschule Geisenheim University",7.94750271319701,49.9857964728756
NA,9.86102137986399,51.3445369621037
NA,9.8612425917967,51.3445740762063
"Universität Kassel - Fachbereich 11 - Ökologische Agrarwissenschaften",9.85960875654969,51.3443018117894
"Phänologischer Garten Linden",8.68499802970063,50.5328999698948
"Hochschule Darmstadt",8.63365060692071,49.8661762690746
"h_da FB Gestaltung",8.66862189412546,49.877442160288
"Diploma Hochschule Bad Sooden-Allendorf",9.96278861685969,51.2665124671946
"Landwirtschaftliche Lehr- und Forschungseinrichtung ""Am Rittergut""",8.693224088938,50.5363138228575
"Hochschule Geisenheim University",7.95066459151301,49.9812503321598
"BCN",8.69156883731758,50.1288490370751
"Mensa am Erlenring",8.77640413682952,50.8084277512881
NA,8.76679810732756,50.8073213845311
NA,8.76956041388023,50.8045141373731
NA,8.77149771631363,50.8162881179044
"A20",8.68192685494407,50.5871258813427
"Hochschule Mainz, Standort Holzstraße",8.27776535219459,49.9974575052543
"Hessische Hochschule für Polizei und Verwaltung",8.68562006099678,50.5750464848544
"Flügel A",8.62753093322114,50.1726447604943
"Universitätsklinikum Rostock",12.1016506158019,54.0847458238337
"Botanischer Garten der Universität Rostock",12.0934559908769,54.0911147339007
"Hochschule Wismar",11.4462527861615,53.8901400881454
"Hochschule für Musik und Theater",12.1444272905231,54.0915745915828
"Institut für Biologie",12.1120889474325,54.0771398637895
"Institut für Chemie - Hörsaal",12.1132225915513,54.0769446809072
"Institut für Biologie - Hörsaal",12.1122448548301,54.0774685895728
"Institut für Chemie",12.1130767679636,54.0766194437865
NA,12.0940918924593,54.0748837404302
"Institut für Physik",12.1177412413819,54.0860700134516
"Zentrum für Radiologie",12.1261239591724,54.0886637355771
"Institut für Rechtsmedizin - Betriebsärztlicher Dienst",12.1387191442735,54.0819983543949
"Institut für Rechtsmedizin",12.1386951674564,54.0817986036625
"Internationales Begegnungszentrum",12.12208018994,54.0871528664216
NA,12.0810335,54.170107
"Universität Rostock, Hauptgebäude",12.1332676581744,54.0879669934995
"Tourist-Information",12.1351352827514,54.0880017360552
"Institut für Physik",12.1347905480737,54.0878398747844
"Heinrich-Schliemann-Institut für Altertumswissenschaften",12.1353002575124,54.0870294146721
NA,12.1352868100093,54.0873039879901
"Insitut für Biologie - Zoologie",12.1337924836981,54.0874501471434
"Institut für Physik",12.135097199628,54.0874152930569
NA,12.13505445,54.08727195
NA,12.1341398,54.08760725
"Institut für Physik",12.1340959000963,54.0872502086822
NA,13.3755101017708,54.0980472992793
NA,13.3768212994142,54.0925239056879
NA,13.3717526480431,54.0972743608163
NA,13.3869838852177,54.096387354307
"HS Wismar- Bereich Seefahrt",12.0802216725456,54.1708466496697
NA,13.3662338067567,54.0971099298783
"Kurshaus",13.1035226745997,54.5857992329745
"Laborhaus",13.1027045290275,54.5864842303899
"Doktorandenhaus",13.1037227036616,54.5861203022054
"Hochschule der Bundesagentur für Arbeit",11.4082203633638,53.6557890413976
"Hochschule Wismar - Außenstelle Malchow",11.4728971490722,53.9865037415002
"Komplexgebäude",12.0985682250067,54.0753168050718
"Außenstelle Universität Leipzig",12.7038521707286,54.4403517726908
"Theologische Fakultät",12.1350592042402,54.0876630342754
"Universität Greifswald",13.3752217579054,54.0945018860193
"Institut für Anatomie",12.1260473555079,54.089746441347
"Hydrogeologisches Testfeld",13.4103216220229,54.0919013183059
"Institut für Umweltingenieurwesen",12.0814044061043,54.0677668369403
NA,13.3689498107668,54.092395564636
"Südstadt-Campus",12.1089857035392,54.0780378067231
"Leibnitz-Institut für Atmosphärenphysik/Außenstation Juliusruh",13.3736808,54.62842655
"Institut für Physik",12.1078977976933,54.0772616943748
NA,13.4046318084334,54.0896435748262
"Campus Ulmenstraße",12.1090141176203,54.0859943690342
NA,12.1127811803098,54.084026243741
"Biologische Station Faule Ort",12.8223790937751,53.4180381006235
NA,13.3853236734794,54.0967362673476
NA,13.3923791437442,54.0914558481724
NA,13.3958327762751,54.0884717575697
NA,13.3655210067406,54.0911268919297
"Technische Universität Braunschweig - Zentralbereich",10.5284594197978,52.2732421516966
"TU Braunschweig - Campus Ost - Langer Kamp",10.5383275108128,52.27732150238
"TU Braunschweig - Campus Nord",10.5407179193193,52.2849561802926
"TU Braunschweig - Campus Ost",10.5470872129666,52.2821477280506
NA,10.349345533956,51.7992249453369
NA,10.3537025528213,51.799694433922
NA,10.3574966048229,51.8052505827562
"private Hochschule",9.74998465887879,52.3561054189493
"Hochschule für Bildende Künste Braunschweig",10.501081675171,52.2571758302742
"TU Braunschweig - Institut für Architekturbezogene Kunst (IAK)",10.5655341470668,52.3111172104636
"Carl von Ossietzky Universität Oldenburg",8.18156629866941,53.146834636279
"Ostfalia Hochschule für angewandte Wissenschaften",10.5484198434816,52.1759399506828
"Jacobs University Bremen",8.65136443655575,53.1670712686721
"Fachhochschule für Interkulturelle Theologie Hermannsburg",10.1010056772722,52.8324303603364
"TU Braunschweig",10.54112067873,52.2761637625257
"Leuphana Universität Lüneburg",10.4013793674663,53.2287998879694
"Universität Hildesheim",9.97578706029839,52.1338655208284
"SCIENCE CAMPUS Braunschweig-Süd",10.5325247632297,52.2126718738873
"K Kubus",10.5488468206854,52.1753409543838
"M Laborgebäude Versorgungstechnik",10.5478443424894,52.1754963351846
"L Laborgebäude Elektrotechnik",10.5473063980651,52.1761288772254
"Leibniz Universität Hannover, ""Parkhaus""",9.70680217071735,52.3902093104703
"Technische Universität Braunschweig - Zentralbereich",10.5352419924302,52.2730570110932
"Mensa 1",10.5263672367682,52.2747714770566
"Universität Hildesheim - Samelsonplatz",9.96782380559355,52.1340077555433
"DLR-Standort Göttingen",9.92929318938702,51.5269943449719
"Zentralcampus Georg-August-Universität Göttingen",9.93737577297941,51.5414402778324
"Leibniz Universität Hannover",9.61854143207522,52.4257217183183
"Franzius-Institut für Wasserbau, Ästuar- und Küsteningenieurwesen",9.62337977938293,52.4196736920459
"Institut für Fertigungstechnik und Werkzeugmaschinen (8120)",9.61782692304212,52.426207454899
"Unterwassertechnikum Hannover",9.61946387606252,52.4263020519229
"Institut für Umformtechnik und Umformmaschinen (8121)",9.61811267649492,52.4247357091523
"Leibniz Universität Hannover",9.62382057281572,52.4195179565287
"Institut für Werkstoffkunde (8122)",9.61920697957506,52.4248093659947
"Nordcampus Georg-August-Universität Göttingen",9.95234140049122,51.5593071594442
NA,9.72570307456093,52.3788342640593
NA,9.72095045852407,52.3834700184728
NA,9.72159339694516,52.3822720295741
NA,9.71441136268196,52.3870411276308
NA,9.71463676674132,52.3870509666361
NA,9.71495287318298,52.3869337077154
NA,9.71479185865002,52.3870123607563
NA,9.71520489896219,52.3868360608002
"Tierärztliche Hochschule Hannover",9.76546814998153,52.3691685628212
"Fakultät für Architektur und Landschaft",9.69630905560331,52.3926471326971
NA,8.14679364696312,53.5149704988841
"GEO600",9.80763865397206,52.2463335830765
"B Hörsäle A, C, E",10.5482056287094,52.1763999544563
"D Rechenzentrum",10.5493861850495,52.1765429078887
"Vorklinisches Lehrgebäude/Hörsäle A-E",9.80417496927189,52.3857036509333
"Theoretische Institute I",9.80314169346824,52.3854276860234
"Klinisches Lehrgebäude/Hörsäle F-N",9.80431510018047,52.3844386317945
"Außenstelle Zentrales Tierlaboratorium",9.80081365,52.38560145
"Forschungswerkstätten",9.80219074954777,52.3850655505395
"Theoretische Institute II/Hörsäle Q-S",9.80082276994296,52.3844535279711
"Zentrales Tierlabor",9.8017392721505,52.3855703951795
"Logopädenschule/Personalrat (Haus E)",9.80798771034759,52.3826523521102
NA,9.80419036968903,52.3804942037242
"Übergabestation Fernwärme",10.5320128680288,52.2722954433124
"Hochschule Osnabrück - Campus Haste",8.03886290034851,52.3047274833381
NA,10.7879651140119,52.4256319387382
NA,9.94843609887154,51.560454991543
"Hochschule für Musik, Theater und Medien Hannover",9.75469321414256,52.3776324501621
"Hochschule Osnabrück MKT Campus Lingen",7.32235290402138,52.519422493201
"Universitätsgebäude 64 (Regenwaldhaus)",8.02826241171798,52.2818398025481
"Universitätsgebäude 62",8.02711582676235,52.2823665920863
NA,8.02772405624444,52.2824175770427
NA,8.0280379718518,52.2825013012027
"Universitätsgebäude 61",8.02743341182134,52.2820971269755
NA,8.04124147595525,52.3213951947335
"Kalter Gang",10.528080821311,52.2728646623095
"TU Braunschweig Fachschaft Chemie Häuschen",10.535615,52.2728511
NA,10.5349824,52.27345125
NA,10.5356434020675,52.2734202746852
NA,10.536197687998,52.2733817807716
"TU Clausthal - Forschungszentrum Energiespeichertechnologien, EFZN-Geschäftsstelle",10.4323919256662,51.8996152713357
"Technologie-und Gründerzentrum Goslar, TU Clausthal - IEPT",10.4318010662979,51.8999869320116
"Jade Hochschule Wilhelmshaven/Oldenburg/Elsfleth - Studienort Elsfleth",8.4667488470159,53.2423153194924
"Jade Hochschule, FB Seefahrt und Logistik",8.46683052084818,53.2422965973313
"Hochschule Osnabrück - Caprivicampus",8.02508613714924,52.2775100670399
"Institut für Partikeltechnik",10.5384965412779,52.2781904127994
"Jade Hochschule, FB Seefahrt und Logistik",8.4682726,53.24508685
NA,10.4320650801883,51.8997614091486
"V01 - Universitätsverwaltung",8.18220654097711,53.1490295361023
"Polizeiakademie Niedersachsen",9.644633653108,51.4291059501019
"Campus Haarentor - V02 V03 V04 - Seminraräume",8.18039348539273,53.150535599499
"Campus Rotes Feld",10.4124218700892,53.2406616519839
"A Hauptgebäude",10.5488476077376,52.1765477196993
"C Westflügel",10.5482193427359,52.1760415847105
"A Aula",10.5481738301115,52.1767128794478
"H Zentrale Betriebswerkstatt/ IPT",10.549783209844,52.1753984981807
"I Fahrzeugtechnik",10.54934595,52.1755223
"G Maschinenhalle",10.5491137918049,52.1757475838018
"Hausmeister",10.5497261,52.17602655
"Hochschule Osnabrück und Universität Osnabrück - Campus Westerberg",8.0232147619596,52.2843233698307
NA,10.5263986238834,52.272659421454
"Elbauenstation (Uni Hamburg)",11.4547257139003,53.0577792302002
"Campus Salzgitter",10.3809195804022,52.087174008094
"CN",8.29620934183087,52.7197497240992
"Katholische Akademie Stapelfeld",7.98700806785179,52.8207202211675
"Institut für Jagdkunde der FH Hildesheim/Holzminden",9.98187899622346,51.5152858686031
"Hans-Borst-Zentrum/Rudolf-Pichelmayr-Zentrum",9.80367119940776,52.3812333656797
"Universität Vechta",8.29479020623469,52.7197099989513
"Pädiatrisches Forschungszentrum",9.8086749,52.38174925
"TU Clausthal - IPSSE",10.4319895994646,51.9010642293503
"Experimentelle Phykologie und Sammlung von Algenkulturen der Universität Göttingen",9.9380002851337,51.5387941467512
"Praktikumsgebäude",9.93988925139712,51.538123022636
"SOFI",9.94546795692436,51.5307530158987
"Kommunale Hochschule für Verwaltung",9.72186639747352,52.3703546863966
"Hans-Borst-Zentrum/Rudolf-Pichelmayr-Zentrum",9.80394733025051,52.3816126575566
"Leibniz Universität Hannover",9.72121308779026,52.3765226761212
"Kurt-Schwitters-Forum",9.81931269676523,52.3206506511763
"Kammermusiksaal",9.76024591693112,52.3747191906487
"Lehr- und Forschungsgut der Stiftung Tierärztliche Hochschule",9.82299417977014,52.2455765077052
"Hochschulgebäude OS",8.03724252475357,52.308895288717
NA,10.5448484368067,52.2855899961195
"Leibniz Universität Hannover",9.70355480271553,52.3932816497719
NA,10.3816531514058,52.0871036335229
"Universität Bremen (ZARM, Fallturm)",8.8579055457075,53.1103684122231
"Hochschule für Künste im Sozialen HKS - Ottersberg",9.16255429206393,53.1034336255386
NA,10.3390015620097,51.8060712458493
"Villa GeistReich",8.2195937,53.1341929
"Hochschule Osnabrück",8.02143475167354,52.2760595677278
"Ostfalia - Hochschule für angewandte Wissenschaften",10.4457166229223,52.8976023241665
NA,10.3574524235068,51.8068433006914
"Institut für Bauphysik: Versuchshalle",9.62209476030869,52.4199353023607
"Leibniz Universität Hannover",9.72343142364067,52.3772155144896
"Tierärztliche Hochschule Hannover",9.80374228076941,52.3537181410658
"Ostfalia Hochschule für angewandte Wissenschaften",10.786723230763,52.4273778662644
"Universitätsgebäude 64 (Bohnenkamp-Haus)",8.02822104738734,52.282131042573
"Jade Hochschule, FB Seefahrt und Logistik, Simulator",8.46501938360502,53.2367752466474
"Hochschule Emden/Leer Fachbereich Seefahrt",7.45700399279422,53.2324917393798
"Hanse-Wissenschaftskolleg",8.59032809978673,53.0426493728078
"Campus Wechloy",8.16584602517191,53.1522259307909
"Max-Planck-Institut für Sonnensystemforschung",9.94854697214921,51.5603092892366
"Max-Planck-Institut für biophysikalische Chemie",9.96890829735389,51.5619744729904
"Hochschule für Künste Bremen",8.76776683746146,53.0982178236219
"Hochschulgebäude OT",8.03729862219129,52.3092037091335
"Hochschule Bremen",8.78384366079042,53.0552299138953
"Universität Hildesheim - Bühlercampus",9.96463466644405,52.1367501917628
"TU Braunschweig - Campus Forschungsflughafen",10.5447254456444,52.3141559812796
"Hochschule für Künste im Sozialen HKS, Ottersberg",9.16333257095634,53.1068884565249
"Gebäude SL",8.02240420957577,52.2849809650252
"HAWK - Hochschule Hildesheim/Holzminden/Göttingen - Fakultät [n] Naturwissenschaften und Technik",9.97045775404347,51.5220745943895
"Hochschule 21",9.70567986431194,53.4771953862956
"Klostergut Weende",9.95485831258836,51.5580669367361
"Campus Volgershall",10.3822206800852,53.249660336748
"Max-Planck-Institut für experimentelle Medizin",9.93744966032392,51.5511132392347
"Universität Bremen",8.84640283363533,53.1055509690605
"HAWK/Fraunhofer",9.9711227992174,51.5208102260855
NA,9.93779791509496,51.5341290867994
NA,9.93789554756034,51.5334843355612
NA,9.94310507512479,51.5286244050712
"SUB Göttingen (Historisches Gebäude)",9.93249065103791,51.5338122990917
"Institut für Zuckerrübenforschung",9.9017300787921,51.5539888290234
"Akademie der Wissenschaften",9.92892424145606,51.5340750369112
"0.027.1",8.85492458896923,53.1059381095595
"Universität Osnabrück",8.04563875553912,52.2709890905283
"Universität Osnabrück",8.04174683459978,52.272635188086
"Experimenteller Botanischer Garten",9.95740045156422,51.5559037731153
"Studentisches Trainingszentrum Ärztlicher Praxis und Simulation",9.944755,51.5502148
"Campus Maschinenbau der Leibniz Universität Hannover",9.61387223402199,52.4256820619764
"Georg-August-Universität",9.89494250205912,51.5592263574511
NA,9.93783738872879,51.5300401465747
"Deutsches Primatenzentrum",9.94982602770727,51.5620363834212
"Laser-Laboratorium Göttingen",9.9455492897165,51.5599721010646
"Max-Planck-Institut für Dynamik und Selbstorganisation (MPI-DS)",9.96807877992641,51.5605424994647
"Universitätsbibliothek Osnabrück, Rechts- und Wirtschaftswissenschaft",8.03925099206591,52.2724401436124
"Universität Osnabrück",8.03933139044481,52.2724767821761
"Universität Osnabrück",8.03817662098009,52.2730047815165
"Technische Universität Clausthal",10.3313744987282,51.8028841944252
NA,9.7148368705639,52.3870982513791
NA,9.71471930718142,52.3871304216272
NA,9.72088583906163,52.3834533991159
"Jade Hochschule",8.20119420128586,53.1425010839196
NA,9.80208477129485,52.3852991892282
"Universität Osnabrück",8.04577350340246,52.2730830403969
"UMG Lehrhospital",9.94180821864042,51.5461982079862
"Max-Planck-Institut zur Erforschung multireligiöser und multiethnischer Gesellschaften",9.94691156086227,51.5409704307976
NA,7.09746764022775,50.7520688134531
"Universität Paderborn",8.77104190419857,51.7078325941625
"Institut für Öffentliches Recht",7.10868810348163,50.7293244388173
"Fachhochschule für öffentliche Verwaltung",7.11849602168824,51.5138235340739
"FernUniversität in Hagen",7.49422850620777,51.3772881162658
"Bergische Universität Wuppertal - Campus Grifflenberg",7.149038089024,51.2447448304713
"Westfälische Hochschule Gebäude A",7.02785811044664,51.574194679678
"D",7.02918687019261,51.5763210326659
"Universität Bonn",7.1291790406596,50.7054700459655
"Centrum für Biotechnologie (CeBiTec)",8.49092616280377,52.0393776283237
"Vegetationsanlage Pflanzenernährung",7.08411116001724,50.7238419981413
"Vom-Stein-Haus",7.6185054943649,51.9643752566827
"Folkwang Universität der Künste",7.00465980500844,51.3875661917661
"Kompetenzzentrum Zollverein (Essen)",7.0452528381072,51.4909852796952
"Universität Bielefeld",8.48999499652851,52.0365689944401
"Ruhr-Universität Bochum",7.26169351976242,51.4443126923394
"Universität Bielefeld (Q)",8.49672227133627,52.0360390178493
"Versuchsgut Frankenforst",7.20658219923496,50.7140631936403
"Fachhochschule Dortmund",7.45694556657509,51.5061038518779
"Kunsthochschule für Medien - Vor St.Martin",6.95959760750606,50.9347730414764
NA,7.09273166605738,50.7225690450963
"Fachhochschule Südwestfalen (Campus Meschede)",8.29545533205278,51.3619278983731
"Neues Palais",8.87618599444937,51.9309375761762
"Hochschule für Musik - Schlagzeughaus",8.87720285,51.92914885
"Hochschule für Musik - Konzerthaus",8.87590397708151,51.9299449418684
"Universität Bielefeld (H)",8.49423402480218,52.0348727195594
"Universität Siegen, Brauhaus",8.01520464989742,50.9040125935335
"Institut für Kommunikationsforschung und Phonetik",7.09748703147062,50.7279143630081
"Institut für Genetik",6.93543076208295,50.9271646470799
"Sportgelände Universität",8.77502945567504,51.704082287457
"Geowissenschaften",6.93466767534816,50.9269262141348
"Fachhochschule Bielefeld FB Gestaltung",8.5115106698779,52.0278946072038
"Anorganische und Analytische Chemie/ Physikalische Chemie II (IAAC / IPC ll)",7.59771122105148,51.9680086538761
"INRES",7.07311214572511,50.7292949856646
NA,7.07456024616096,50.7295519286785
"Biochemie / Nuklearchemie",6.93520153570143,50.9261872163078
"Heinz Nixdorf Institut / Universität Paderborn",8.73461793582808,51.731808616351
NA,6.98499023759372,51.435377245308
"Dezernat 01 - Bildungsakademie",6.9853336774454,51.4357501285462
"Technische Hochschule Köln (Campus Deutz)",6.98858642372085,50.9341160793925
"Hochschule der bildenden Künste, Freie Akademie der bildenden Künste",7.07787170197991,51.3906367825509
"Angewandte Physik Hörsaal",7.59944729429389,51.966090192421
"Angewandte Physik Hauptgebäude",7.59930416451557,51.9656318923745
"Institut für Forschung in der Operativen Medizin",7.04843944380355,50.9361701959442
"German Research School for Simulation Sciences",6.40536745634615,50.9089184039123
"Campus Nord",8.49343493716433,52.0456861725467
"SP2",8.77772209698507,51.7045574258122
"Halle 1 und 2",6.86959287139772,50.9342040951166
"Bundesleistungszentrum Schwimmen",6.86905960244505,50.9316742721495
NA,6.86940213818674,50.9342739428813
"Hochschule Hamm-Lippstadt (Campus Lippstadt)",8.36409198705997,51.6738182019991
"Universität Siegen - WS",8.02421912934955,50.901210036599
NA,7.2657697237396,51.4415879688481
"Fachhochschule für öffentliche Verwaltung",8.50284310318258,52.0353104259539
"Fachbereich Design",7.60100824203323,51.9755281246455
"Geographie Südbau",6.93736719305606,50.9270308689278
"Institutsgebäude F.I. für Soziologie",6.91554179346994,50.926839401326
"FH Aachen: Gebäude Boxgraben",6.07908719010344,50.7689222471665
"Sem. für ev./kath. Theologie",6.91374650039293,50.9348083512228
"Fachhochschule Aachen, Campus Jülich",6.3750438996133,50.9365815326493
"Hüfferstiftung",7.60759242593774,51.9608144480556
"Sport Seminargebäude",7.59977171648328,51.9710255531087
"Aldenhoven Testing Center",6.22780381817574,50.9094590254711
"Universität Münster",7.6001592358604,51.9740119102703
"Institut für Musikwissenschaften",7.60243699334971,51.9704732963188
"Informationsverarbeitungs-Versorgungseinheit 1 - Geisteswissenschaften (IVV1)",7.61997432053239,51.9608212755837
"Institut für Transfusionsmedizin",7.60044700235175,51.9630865394188
"Institut für Neuropathologie",7.59812335626975,51.9621236666824
"Institut für Sportmedizin",7.6016300276789,51.9700140315858
"Institut für Anatomie",6.91859823694731,50.9265303014237
"Alt-Katholisches Seminar",7.10756904946519,50.7318214568476
"Robert Schuman-Institut (Institut Français)",7.10768463445058,50.7317199485009
"Forschungsinstitut für Diskrete Mathematik",7.10484259376977,50.7306433497923
"Hochschule für Musik - Pädagogik",8.8746567,51.9287425
"Hochschule für Musik - Bläser",8.8748828,51.9285252
"Hochschule für Musik - Sänger",8.87509861612927,51.9288593642266
"Hochschule für Musik - Streicherhaus",8.87451323280389,51.9284050056429
"Institut für Psychologie",7.0933747392269,50.7457035133541
"Institut für Musikvermittlung und Musikmanagement / KarrierezentrumInstitut MusikergesundheitDetmol",8.87654325,51.9315172
"Institut für Ökumenische Theologie",7.61980479071215,51.9610417299351
"Fraunhofer Institut für Produktionstechnologie",6.06209985,50.77294055
"Pharmazeutische Institute",7.59950498524815,51.9689639397796
"GEO 1",7.5957309976354,51.9694402938584
"Katholische Theologie",7.62252076066552,51.962608286037
"Institut für betriebwirtschaftliches Management im Fachbereich Chemie und Pharmazie",7.60134573420062,51.9762399333209
"Organisch Chemisches Institut (Altbau)",7.60071689179638,51.9678345133297
"SAE Institute Köln",7.01854049462697,50.9659936336569
"MTI Biochemie",6.92019495335007,50.9259772686341
"Studierendenhaus",6.91987660106355,50.9248116207486
"Sportbibliothek",7.599015639083,51.9714760739397
"Verwaltung Hochschulsport",7.59911311313456,51.9718111426814
"Schreinerei, Dezernat 2 Abteilung 2.2",7.59988245821264,51.9745621527951
"Universität zu Köln Humanwissenschaftliche Fakultät",6.91962853731749,50.9334805045149
"Humanwissenschaftliche Fakultät",6.91979850546246,50.9341893744196
"Normenbegründung in Medizinethik und Biopolitik, Kolleg-Forschergruppe Theoretische Grundfragen der",7.62069986451782,51.9504710348209
"Technische Hochschule Köln (Campus Südstadt)",6.96485643631845,50.9214910115195
"Life & Medical Sciences-Institut",7.08751536949917,50.7243743479798
"Biozentrum",7.08837732062268,50.7246934297243
"Hochschule Niederrhein, Campus Krefeld-Süd",6.56960929885713,51.3165537735033
"Fachhochschule Dortmund - Standort Emil-Figge-Straße",7.42040896704975,51.4941818816367
"Obstversuchsanlage",6.98900054719957,50.6252057368191
"Obstversuchsanlage Campus Klein-Altendorf 2",6.9935060383737,50.6141102046014
"Exzellenzcluster ""Religion und Politik der WWU Münster""",7.62072223713233,51.9507135048323
NA,7.10585607299656,50.729468335273
"Bonn Graduate School of Economics (BGSE)",7.10176565044219,50.7315584401294
"Hochschule Rhein-Waal",6.54582454380473,51.5004394707967
"Universität Bonn – Campus Poppelsdorf",7.08857417597219,50.7261647104439
"MexLab",7.5988326754109,51.9654972521292
"Uniklinik Köln - Institut für Rechtsmedizin",6.9133813924399,50.9420003883074
"Fachhochschule Südwestfalen (Campus Iserlohn)",7.68633014133783,51.3679842052013
"Universität Siegen – Campus Hölderlinstraße (H)",8.02876992032128,50.9060381933832
"Universität Siegen – Campus Adolf-Reichwein-Straße (AR)",8.02575029709282,50.9111516340486
"Universität Siegen – Emmy-Noether-Campus (ENC)",8.00566808977534,50.8740582692268
NA,6.92730658604229,50.9249342408549
"Universität Siegen – Campus Paul-Bonatz-Straße (PB)",8.03062268471182,50.9028428680166
"FHDW Gebäude D",7.11790888938773,50.9835782148759
"b.i.b./FHDW Gebäude F",7.11807895502274,50.9830435716532
"FHDW Gebäude G",7.11807396891321,50.9827420798006
"Universität Witten/Herdecke Altbau",7.37727216807278,51.4489901271574
"Aviation Service Center",7.07065726666466,51.3789998769916
"Hochschule für Musik Verwaltung",8.88174479103149,51.9286206671209
"Universität Duisburg-Essen, L+M-Bereich",6.80060732056524,51.4292507612053
NA,7.27174671656068,52.2210429268134
"Botanik - Herbarium",6.92289044279379,50.9239866605128
"Institut für die Geschichte des Bistums Münster",7.62555560595972,51.9648026885217
"International School of Management",7.40628856311695,51.4890348011878
"Hochschule für Kirchenmusik",8.68498116111684,52.1114425615044
NA,7.07229203616532,50.7322471079438
"Hochschule des Bundes für öffentliche Verwaltung",6.88048178455853,50.8321505670491
"Hochschule Rhein-Waal (Campus Kleve)",6.1432558471395,51.7949247086357
NA,7.62338005545764,51.9652133768968
NA,6.27013139669936,50.975892162937
"Freshman Institute FH Aachen",6.26900698249983,50.9760931656179
"Fachhochschule Südwestfalen, Institut für Verbundstudien",7.50900566570899,51.3768639322986
"Robert Schumann Hochschule Düsseldorf",6.77227454042809,51.2424183497311
"Fachhochschule Südwestfalen",8.28585370127746,51.3569011505828
"Institut für Medizinische Mikrobiologie, Immunologie und Hygiene",6.90211338723011,50.9170496062466
"Kunsthochschule für Medien - Filzengraben",6.96103716005164,50.9338058932021
"Personalrat für den wissenschaftlichen Bereich",7.61875043620998,51.9604268750806
"Mulliken Center for Theoretical Chemistry",7.09251248161487,50.7272735167668
"Ostkircheninstitut der Evangelisch-Theologischen Fakultät der WWU Münster",7.62156495590346,51.9655544147616
NA,7.62355920898422,51.96498270389
"Campus Unna",7.63605633335505,51.5523397100372
"Bergische Universität Wuppertal - Campus Freudenberg",7.16163717327522,51.2392208046395
NA,6.96496390641351,50.9208997330278
"Energiewirtschaftliches Institut an der Universität zu Köln",6.89794784415649,50.9518303873786
"Zentralbereich Medizinische Synergien",6.91385221350113,50.9240964187812
"Deutsche Hochschule der Polizei",7.64463763052215,51.8977367706169
"Universität Duisburg-Essen, B-Bereich",6.78507994467684,51.4294327898538
"Rheinische Fachhochschule e. V. - Weyerstraße",6.94486565096492,50.9307590061471
"Universität Duisburg-Essen, B-Bereich",6.78694870200046,51.4286782705148
"Universität Duisburg-Essen, B-Bereich",6.78432083813995,51.4276784990881
NA,6.79713073461879,51.4322443039581
NA,6.79709292612612,51.4288235704208
"Rheinische Fachhochschule e. V. - Weyerstraße",6.94434949762149,50.9302862668699
NA,7.10630195537848,50.7296574584108
NA,7.10643172403403,50.7295602273215
"Meinhard Heinze-Haus",7.09678027422276,50.7281609322882
"Juridicum",7.10783551595684,50.7296836905148
"Hörsaal der Universitäts-Kinderklinik",7.11354431001697,50.7245796173627
"Rheinisches Studienkolleg",7.11053173009334,50.7264836607305
"Institut für Zelluläre und Molekulare Botanik / IZMB",7.09258577686126,50.7220974558922
"FH für öffentliche Verwaltung NRW, Abteilung Köln",6.96035051851491,50.9488053661399
NA,7.60131429680671,51.9674928468532
"Fachhochschule Südwestfalen",8.28580301320299,51.3563388332751
"Biochemie/Aktivlabor",6.93558565487515,50.9262660317023
"Geologie",6.93438752189276,50.9272678947305
"Geowissenschaften - Mineralogie",6.93493998469994,50.9265924398895
"Forschungsinstitut für Politische Wissenschaft und Europäisch",6.92331516751823,50.9342093946913
"Heilpädagogik / Universität zu Köln - Klosterstraße",6.91425968931985,50.9345988597045
"Sozialpolitik/Wohnungsrecht Institut für Ostrecht",6.91385161832148,50.9344797579636
"Kunstakademie",7.60170390576479,51.9742905206881
"FB 7 / Verwaltung",7.59915015480362,51.9720621027591
"Hochschulsport Münster (Hochschulsportbüro und Sporttouren)",7.59894782844273,51.9712376604158
"Fachschaft Sport (IfL)",7.59910960506097,51.9711111941235
"Institut für Musikpädagogik",7.60231452031586,51.9706788094573
"Institut für Wirtschaftspolitik / Pohlighaus",6.94130045,50.91686925
"Höhere Fachschule fürAugenoptik",6.97588435869909,50.9064816052973
NA,7.23489927711451,51.5239378968999
"Hochschule Ruhr West (Campus Bottrop)",6.92694287635204,51.5278799785326
"FernUniversität in Hagen - Regionalzentrum Bonn",7.14303496101608,50.6966979050045
"Kunsthochschule für Medien - Große Witschgasse",6.96033572651734,50.9327417405819
"Werkzeugbau-Institut Südwestfalen GmbH",7.60835183054783,51.2471388201475
"TH Köln - Betzdorfer Straße",6.98753183374736,50.935722095451
"Internationales Geothermiezentrum",7.27402295741321,51.4464446345189
"Kunsthochschule für Medien",6.96007145231813,50.9332840269861
"Universität Witten/Herdecke Altbau",7.37730443468479,51.449459586247
"Normenbegründung in Medizinethik und Biopolitik, Kolleg-Forschergruppe Theoretische Grundfragen der",7.6209542834973,51.9505179379928
"EBZ",7.21023185786574,51.4529237047535
NA,8.29557206593286,51.3618398020784
"BiTS - Business and Information Technology School",7.71962547469594,51.3845196147365
"Universität Siegen – Campus US",8.02342421568171,50.8731022933661
"FH Aachen, Fachbereiche Elektrotechnik und Informationstechnik, Wirtschaftswissenschaften",6.08255385141314,50.7590019203471
NA,7.02641114923354,51.5745049810826
NA,7.02766324692815,51.5746392379667
"B",7.02589614391058,51.5742132277047
NA,7.02554444775666,51.5744457103716
NA,7.02583966203011,51.5738524328101
NA,7.02565322026871,51.5741485805674
NA,7.02610090997425,51.5735369544596
"Hörsaal 1 und 2",7.02812666454806,51.5742913362133
"Hörsaal 3 und 4",7.02725060187696,51.5743309414091
NA,7.02712112770079,51.5745510844094
"Fachhochschule Köln",6.9554457268176,50.9427998728859
"Campus Süd",8.49420752513203,52.0368150439579
"Overstolzenhaus",6.96044180315993,50.9340958781587
NA,6.37763150555957,50.9355824994739
"Bioenergie Technikum",8.4886745,52.0371866
"Universität Siegen – FoKoS",8.02824158459824,50.897867340508
"Universität Bielefeld - Gebäude X (Mensa)",8.4931613264777,52.0400891162646
NA,8.28610774543801,51.3564361338951
"IBW-Gebäude",6.92144855831559,50.9343397374437
"Westfälische Wilhelms-Universität",7.59427716202432,51.9630286723544
"Universitätsklinikum Essen",6.98585656465085,51.4333322073157
"Hochschule Ruhr West (Campus Mülheim)",6.85857577427698,51.4276984796015
"Universität Siegen – Artur-Woll-Haus (AE)",8.03274928161255,50.9051865745295
"Universität Siegen – Campus US",8.02142259896717,50.8737800601724
"Technische Universität Dortmund",7.41308070335564,51.491794642387
NA,6.08067327540791,50.7640409034559
NA,6.07931628017748,50.7649694286355
"Alanus Hochschule Campus I",6.99866504594905,50.7324604156464
NA,6.90924890050028,51.657221106814
"Bergische Universität Wuppertal - Campus Haspel",7.16642262826288,51.2595472344485
"Fachhochschule Dortmund",7.45336505367607,51.4987945963983
NA,6.09657110728611,50.75778990442
"Hochschule Bonn-Rhein-Sieg (Campus Sankt Augustin) (h-brs)",7.18233132819619,50.7801997266747
"Fachhochschule Südwestfalen (Campus Hagen)",7.49793370520288,51.3659304810488
"Fachhochschule Münster - Campus Steinfurt",7.32174895085013,52.1429149742454
"Fachhochschule Münster - Hochschulgebäude Bürgerkamp",7.32406914541595,52.1502783578405
"Fachhochschule Münster - Hochschulgebäude Innenstadt",7.33422245221786,52.1484708374955
"Fachschaft Informatik",7.08552981627055,50.7275075997354
NA,7.08419756480703,50.7233996866681
"Universität der Vereinten Nationen",7.12756874188535,50.7182846569496
"Universität Bielefeld",8.49334685108835,52.0376322795031
"Hochschule Niederrhein, Campus Krefeld-West",6.5539664987556,51.3250165607654
"Technische Hochschule Köln (Campus Gummersbach)",7.56194196183705,51.0229276160032
"Max-Planck-Institut für Pflanzenzüchtungsforschung",6.85923101173899,50.9579228845392
NA,7.10772372579415,50.729532583326
"Technische Hochschule (TH) Georg Agricola zu Bochum",7.2124224291211,51.4881240757012
NA,7.06967674797952,50.7302535141672
NA,6.54583342191017,51.5006101963903
NA,8.28617518527591,51.356561135568
"Institut für Rechtsmedizin der Universität Bonn",7.10162481746177,50.7390017306129
"Kirchliche Hochschule Wuppertal / Bethel",7.17118080544098,51.2655385511917
NA,6.08080224754897,50.7777630406381
"EBZ Business School",7.21065010349228,51.4521447469462
"Zentrum für Entwicklungsforschung / Zentrum für europäische Integrationsforschung",7.11932214201572,50.7147273258959
"Hochschule Rhein-Waal",6.54581320020761,51.499318624946
"Akademie Steuern und Wirtschaft GmbH",6.86262939202811,51.6821285939772
"RWTH Aachen",6.03939317853071,50.7772437903465
"Universität Duisburg-Essen",6.98222301751057,51.4346982564339
"Universität zu Köln",6.9141617212302,50.9345702662243
"Campus Velbert/Heiligenhaus",6.96762012313557,51.3276914815414
"Heinrich-Heine-Universität Düsseldorf",6.79476866904054,51.1915899916584
"Universität Witten/Herdecke",7.35698393027996,51.452221996729
"Universität Trier (Campus 1)",6.68705208608583,49.7467415657149
"Umwelt Campus Birkenfeld",7.16925358616657,49.6082778580771
"Hochschule Kaiserslautern, Standort Morlauterer Straße",7.76314694668495,49.4510671302001
NA,7.55835703175588,50.3635533810128
"Universität Landau",8.10721306752066,49.2039958237284
"FTSK Germersheim",8.37018858082024,49.2157783012676
"HS-KL",7.75931027117468,49.4466360490189
"Technische Hochschule Bingen",7.9250648687675,49.9524502481297
"Gebäude O, Bibliothek",7.36061099716114,49.2606395228413
"Gebäude E, Kindertagesstätte",7.35936019249847,49.2621572478184
"Technische Hochschule Bingen",7.90048871273127,49.9665448100064
"Technische Universität Kaiserslautern",7.75415632836527,49.4245118236276
"Deutsche Universität für Verwaltungswissenschaften",8.41473501043664,49.3165019241829
"Walther-Leisler-Kiep-Center",8.04930201292525,50.012356439746
NA,8.05037961945607,50.0120451862203
"European Business School",8.04956833086031,50.0121087179405
NA,8.05021074058334,50.012780253266
"Rote Kaserne",8.11128680182562,49.1991610565397
"Mensa",8.34374829026441,49.6336674910003
"Gebäude G",8.34422690525258,49.6336633202192
"Hochschule Kaiserslautern Standort Zweibrücken",7.36038090984705,49.2613967486825
"Gebäude Q",7.3626201189974,49.2619998096537
"Hochschule Trier Standort Irminenfreihof",6.63215076678846,49.7590188764281
"Hochschule Trier Standort Paulusplatz",6.63539509801599,49.7589064139622
"Philosophisch Theologische Hochschule Vallendar",7.62688908464782,50.401592450725
"Hochschule Koblenz",7.56938904693028,50.3356730221458
"Hochschule Mainz - Standort Campus",8.22669368037103,49.9885407506711
"Hauptgebäude",8.227020827377,49.9884042433126
"Hochschule Mainz",8.22708572743046,49.9883015191022
"Universität Trier (Campus 2)",6.67559212329131,49.7478273234322
"EBS Campus Rheingau Burg",8.03208932265211,50.0055475436065
"Gebäude M",8.34433829110327,49.6346656205791
"Gebäude O",8.34569277973479,49.63462326988
NA,8.11733053971652,49.188005430903
"Gebäude N",8.34502438034887,49.6350443412713
"Gebäude K",8.34474070956905,49.633254589274
"Gebäude A",8.34372835619913,49.6326833691732
"Gebäude K",8.34468656962556,49.6331077670154
"Gebäude L",8.34489110117915,49.6345717986728
"Gebäude D",8.34325350036606,49.6334131018868
"Gebäude B",8.34314557952897,49.6329673138952
"Gebäude C",8.34343704566212,49.6332585579409
"Hochschule Kaiserslautern, Standort Pirmasens",7.60230711294832,49.2110419117284
"Universität Koblenz-Landau",8.11593297066268,49.1885517667774
"Hochschule der Polizei Rheinland-Pfalz",7.2548828653097,49.9274686338751
"Katholische Hochschule Mainz",8.25330680657904,49.9970351372362
"Hochschule Trier",6.62864490841177,49.7681143622908
"Technische Hochschule Bingen",7.90044632973165,49.9664844046203
"Hochschule Geisenheim University",7.95786985969821,49.9813252763348
"WHU Otto Beisheim School of Management",7.61329602186459,50.4004826138372
"Johannes Gutenberg-Universität Mainz",8.23774288541721,49.9918422183404
"Hochschule für Wirtschaft und Gesellschaft Ludwigshafen",8.42317212587801,49.4728159801124
"Hochschule Geisenheim University",7.95066459151301,49.9812503321598
"Leibniz-Zentrum für Psychologische Information und Dokumentation (ZPID)",6.68717034400298,49.7472524363583
"Hochschule Worms",8.34455898440272,49.6323178710302
"Hochschule Mainz, Standort Holzstraße",8.27776535219459,49.9974575052543
"Hochschule der Bildenden Künste Saar",6.98518234534431,49.2327139930103
"Universität des Saarlandes",7.0414815082022,49.2548377557885
"Hochschule der Bildenden Künste Saar",6.98472923324942,49.2325652486652
"Hochschule der Bildenden Künste Saar",6.98491182311672,49.2322619371726
"Alte Kirche Sankt Johann",6.99691644997337,49.2317694828196
"LPM-Außenstelle St.Wendel",7.17310061418011,49.4649029371147
"HBK Gebäude E",6.98297027130351,49.2321073365519
"Lycée d'Enseignement Professionnel Pierre et Marie Curie",6.81767879369009,49.1536317683621
"Lycée d'Enseignement Professionnel Pierre et Marie Curie",6.8172767220298,49.1533377134999
"Lycée d'Enseignement Professionnel Pierre et Marie Curie",6.8168494088561,49.1536843041957
"Villa Europa",7.02094275466481,49.2405585483661
"Deutsch-Französische Hochschule - Université franco-allemande",7.02093643402083,49.2405635138406
"Hochschule für Musik Saar",6.9977755277706,49.2302937031218
"ASW Berufsakademie Saarland",7.11245738449889,49.2820161972153
"Hermann-Neuberger-Sportschule",7.03461378104994,49.2508268763273
"HTW - Campus Rotenbühl",7.01562452082194,49.2436427525234
"htw saar Campus Alt-Saarbrücken",6.97376439096865,49.2353632325963
"IUT De Moselle-Est  -   Université de Lorraine",7.07117540669057,49.1142497584666
"CIPMM (Centrum für Integrative Physiologie und Molekulare Medizin)",7.34880386204963,49.3081847542881
"Hochschule für Musik Saar",6.99986489988632,49.2309430245167
"Universität des Saarlandes - Campus Dudweiler",7.03843148418117,49.2753856534891
"Universitätsklinikum Leipzig AÖR Hautklinik",12.3859400753704,51.3290205138218
"Sporthallen 1 und 2",13.7238032557354,51.0245713739148
"Sporthalle 3",13.7250073836951,51.0246408801786
"Max-Bürger-Forschungszentrum",12.3911596747119,51.3300382606125
"Max-Planck-Institut für Mathematik in den Naturwissenschaften",12.3915196759591,51.3414162891149
"Technische Universität Chemnitz – Teil Straße der Nationen",12.928230816982,50.8390131933035
"Technische Universität Chemnitz",12.9297375727342,50.814795834941
"Institut für Geophysik & Geologie",12.3860632,51.3319313
"Institut für Biologie II",12.3855947823267,51.332467830998
"Großer Hörsaal",12.3858373511821,51.332170339241
"Institut für Biochemie",12.3867135918043,51.3323154682797
"Naturwissenschaftliche Forschungswerkstatt Leipzig",12.3862619501714,51.3321464227786
"Universität Leipzig - Veterinärmedizinische Fakultät",12.3924374305373,51.3204528763593
"Institut für Anatomie",12.3827743496433,51.3320612277393
"Institut für Pathologie",12.3919575164232,51.3306466150327
"Technische Universität Chemnitz - Teil Erfenschlager Straße",12.9395004921234,50.7961179761857
"Lehr- und Forschungswildgehege Grillenburg",13.5029821192884,50.9593759112505
"Ökologisches Prüffeld",13.5652724465506,50.9639456957456
"Wildacker",13.5633718881167,50.9624937324915
"Emissionsök. Versuchsfläche",13.5657426798344,50.9636422386709
NA,12.9310218829253,50.8173235329592
"Pharmazeutische Technologie - Institut für Pharmazie",12.4011270297673,51.3330462561995
"Universität Leipzig - Archiv (ehemalige Pferdeställe)",12.38806865,51.3357989
"Medizinische Berufsfachschule am Universitätsklinikum der Universität Leipzig",12.3720180101918,51.3563764811639
"Herder-Institut, Philologische Fakultät der Universität Leipzig",12.3711868497422,51.3533966006185
"Institut für Geographie",12.394542463033,51.3315763143306
"Institut für Geographie",12.3949458121902,51.331831814418
"Hochschule für Grafik und Buchkunst",12.3685024542976,51.3538958978421
"Zentrum für Medien & Kommunikation der Universität Leipzig",12.3705043004837,51.3469323003402
"Karl-Sudhoff-Institut",12.3528432599413,51.3341916232108
"Hochschule für Musik und Theater",12.3666594816146,51.3327375892113
"Hochschule für Grafik und Buchkunst",12.3679498042917,51.33320695693
"HTWK Leipzig Wiener Bau Fakultät Elektrotechnik und Informationstechnik",12.3661537125314,51.3330234435014
"Deutsches Literaturinstitut",12.3676612403573,51.3338019974146
"Villa Tillmanns",12.3696136156121,51.3341910085995
"Krüger-Haus",13.3397330203578,50.9197871028843
"540",13.9482826533275,51.0583754352414
"Medizinische Fakultät",12.3745307323641,51.333142240441
"Mediencampus Villa Ida",12.3626848664381,51.3568759890449
"Zuse-Akademie (Zusak)",14.2338759963599,51.4380171194844
"Interimsmensa",12.3898721347118,51.3319656763964
"Seminargebäude",12.39004435,51.3321441
"Haus E - Carl-Ludwig-Institut für Physiologie",12.3914404854239,51.3314397248446
"Haus T - Institut für Laboratoriumsmedizin",12.3836216170177,51.3305756529008
"Stabstelle Umweltschutz und Arbeitssicherheit Universität Leipzig",12.3859030617436,51.3323349684098
"Bildungsinstitut PSCHERER gGmbH",12.4678350980228,51.3366962039543
"Westsächsische Hochschule Zwickau",12.49505540733,50.7159879968325
"Hochschule Zittau/Görlitz Campus Görlitz",14.9989183448285,51.1492121647553
"Universität Leipzig, Rektorat, Königliches Palais",12.3802787897873,51.3411897368468
"Geschwister Scholl-Haus, Institut für Kunstpädagogik",12.3794072013759,51.3401587137488
"Lehr- und Versuchsgut Oberholz",12.5142751749307,51.2565810669905
"Jacob-Leupold-Bau",12.4950035894362,50.716866277091
"Felsenkeller",13.7018271197012,51.0241858891417
"Jakob-Leopold-Bau",12.495329608713,50.7165639425911
"622",13.9510476353918,51.0586708534454
"Universität Leipzig - Fakultäten für Chemie und Physik",12.390991174533,51.3273267870632
"Institut für Geographie",12.3944269068439,51.3311276676622
"Hochschule für Musik und Theater",12.369150001286,51.3412540831286
"Technische Universität Dresden. Medizinische Fakultät Carl Gustav Carus",13.785179642302,51.0530674647177
"Universität Leipzig",12.378552220421,51.338588569771
"Hochschule für Technik, Wirtschaft und Kultur Leipzig",12.3736668723926,51.3131228381856
"Universität Leipzig - Didaktik der Physik",12.3958756590576,51.3309294965421
"Hochschule Zittau/Görlitz GIII",14.9859660012521,51.1552352034007
"Laserinstitut Hochschule Mittweida (Haus 42)",12.9711152091665,50.9840350329637
NA,12.9738064957066,50.9860505088927
"Berufsakademie Sachsen Staatliche Studienakademie Glauchau",12.5577762153981,50.8219853519407
NA,12.1715383396198,50.6063160638401
"Julius Kühn-Institut",13.8733066398142,51.010287305234
"Universität Leipzig - Institut für Meteorologie",12.3886978281242,51.3333757619756
NA,13.3413371573298,50.9204160085257
"Haus Z IX",14.8009381170872,50.8913503203492
"Hochschule für Bildende Künste Dresden",13.742530716489,51.0528283492388
NA,13.7606809543124,51.0513889061948
NA,12.4006321340134,51.3328605156749
NA,12.3997250827445,51.3325917804425
"IHI Zittau (IHI)",14.8042412826638,50.8965860061922
"Gerätehaus",14.8004822340614,50.8911876217612
"Gewächshaus",14.8010310922767,50.8909160815645
"Messhaus",14.8008242136435,50.890967818199
"Technische Universität Chemnitz – Teil IV Wilhelm-Raabe-Straße",12.9171355881214,50.817964571644
"Haus C - Zentrales Forschungsgebäude",12.3881692620781,51.3318343587687
"Hochschule Mittweida",12.9703910961315,50.9887356583996
"Institut für Theoretische Physik",12.3803422790364,51.3328321628114
"Hochschule für Telekommunikation Leipzig",12.3755454717915,51.313057295541
NA,13.8141175289948,51.008792395307
"Messraum",14.80053595,50.8910986
"Institut für Biologie I",12.3941272355034,51.3309698934063
"MAIN, TU Chemnitz",12.9273547549603,50.8179276817745
"Universität Leipzig, Observatorium Collm",13.0022347955868,51.308471666987
"Universität Leipzig - Sportwissenschaft",12.3526581494076,51.3383913650148
NA,13.3396506554687,50.9199476582289
"Halle D, Breitscheidstraße",13.8121666053788,51.0101192636724
"Centre for International Postgraduate Studies of Environmental Management",13.7508893041089,51.0286038413491
"Lehrküche",13.7516376161098,51.0315170041755
"Technische Universität Dresden",13.5777820605349,50.9826579307234
"Laborgebäude",13.6793577113186,51.0703693521193
"Laborgebäude",13.9243840868067,50.9660432933002
"Internationales Hochschulinstitut Zittau",14.807267483758,50.8992544092309
"Hochschule der Sächsischen Polizei (FH)",14.9652777768287,51.3542054155682
"Institut für Tierernährung, Ernährungsschäden und Diätetik",12.3394149280697,51.3671460219465
NA,12.4017017,51.3327009
"TU Bergakademie Freiberg",13.3353434144031,50.924956109131
NA,13.7574855108059,51.0433225048898
NA,13.7608842465899,51.0526143195354
"Versuchsgerinne Röthenbach",13.5870135506298,50.8587723810009
"Rudolf-Schönheimer-Institut für Biochemie",12.3907416010617,51.3297787556447
NA,12.3915314145352,51.330525111254
"MEZ",12.3912960968908,51.3303609392363
NA,12.3921161438154,51.3305085605319
"Institut für Rechtsmedizin",12.391861165297,51.3303367205598
NA,12.3916425921358,51.3303975548089
"Hochschule Magdeburg-Stendal",11.6760705307321,52.1405117697949
"Hochschule Harz",10.7588439653581,51.8271938965391
"Campus Heide-Süd",11.9343644181817,51.4964068819298
"Biologicum",11.9395265407387,51.4979338658313
"Universitätskliniken",11.9784548572722,51.4856927514008
"Löwengebäude",11.9693621196176,51.4865015903494
"Auditorium maximum- Hörsaalgebäude",11.9702242828983,51.4857555246597
"Juridicum",11.9685899317103,51.4859031474524
"Melanchthonianum",11.968235252424,51.4863796170343
"Rektorat",11.968409422355,51.4866377605378
"Thomasianum",11.9686699297273,51.4867418472207
"Burse zur Tulpe",11.9688780105692,51.4869213872393
"Martin-Luther-Universität Halle-Wittenberg",11.973392628252,51.4844820064187
"Campus Design",11.9567613246285,51.4911910560783
"Kunsthochschule Halle, Medienzentrum",11.9571210813442,51.4891615701518
"Burg Giebichenstein Kunsthochschule Halle, Gärtnerhaus",11.9557470204888,51.5028632048553
"Hochschule für Kunst und Design, Bibliothek",11.9569405834969,51.5023280670356
"Hochschule Anhalt",12.2298672467702,51.8399642481539
"Fraunhofer Center für Silizium Photovoltaik (CSP)",11.9369828896888,51.4920616943319
NA,11.940075695904,51.4878447331355
"Hochschule Magdeburg-Stendal",11.8504369609254,52.6148992101778
"Hochschule Anhalt",11.9671042815798,51.7545456360464
NA,11.9713127438154,51.4859852059145
"Institut für Geschichte Kunstgeschichte Japanologie",11.9494884268649,51.5050677900936
"Sprachenzentrum",11.9693063092954,51.4901041189178
"Martin-Luther-Universität Halle-Wittenberg",11.9733156653025,51.4842935441312
"Gewächshaus Biologicum",11.9384684603194,51.4980520609637
"Naturkundliches Museum der Martin-Luther-Universität Halle-Wittenberg (geplant)",11.9653492645185,51.4866990606312
"Prüfungsamt Phil. Fak. I und II (MLU)",11.972239452202,51.4896097987306
"Hochschule Harz",10.7616976351372,51.8260878790919
"Hochschule Merseburg",11.9748299930293,51.3435836453304
NA,11.9493475948838,51.5050568246919
NA,11.9433051306858,51.5045766922366
"Weinberg-Campus",11.9425074703561,51.4973242983841
NA,11.9392045208478,51.4944723384609
"Universitätsplatz",11.9695385477568,51.4862657660367
NA,11.9733859016557,51.4844619355572
NA,11.9569020339806,51.5024259149355
"Zoologische Sammlungen",11.9646198061785,51.4847338264613
NA,11.9653032915125,51.4868198592588
